program_reference_id,date_received,description,facility_site_name,facility_site_address,city,county,permit_status,permit_type,completed_date,,,permit_number,days_used,expiration,url,site_id,Latitude,Longitude,Accuracy Score,Accuracy Type,Number,Street,Unit Type,Unit Number,City,State,County,Zip,Country,Source,Census Year,State FIPS,County FIPS,Place Name,Place FIPS,Census Tract Code,Census Block Code,Census Block Group,Full FIPS (block),Full FIPS (tract),Metro/Micro Statistical Area Name,Metro/Micro Statistical Area Code,Metro/Micro Statistical Area Type,Combined Statistical Area Name,Combined Statistical Area Code,Metropolitan Division Area Name,Metropolitan Division Area Code
AP202205012,05/11/22,Incinerator,MoKan Crematory LLC,1720 kansas ave,Kansas City,Jackson,AP:  Permit Issued,AP: Permit-by-Rule,06/27/22,,,062022-013,47,,,AP0000950413,39.09144,-94.548905,1,rooftop,1720,Kansas Ave,,,Kansas City,MO,Jackson County,64127,US,Jackson,2021,29,29095,Kansas City,2938000,16000,1049,1,2.91E+14,29095016000,"Kansas City, MO-KS",28140,metropolitan,"Kansas City-Overland Park-Kansas City, MO-KS",312,,
AP202107013,07/07/21,Airport,Kansas City Airport Aviation Dept,601 brasilia ave,Kansas City,Platte,AP:  Operating Permit Issued,AOP: Intermediate Operating Permit Renewal,06/06/22,,,OP2022-012,334,6/6/27,,AP0001652404,39.304398,-94.720609,1,rooftop,601,Brasilia Ave,,,Kansas City,MO,Platte County,64153,US,Platte County,2021,29,29165,Kansas City,2938000,980000,1011,1,2.92E+14,29165980000,"Kansas City, MO-KS",28140,metropolitan,"Kansas City-Overland Park-Kansas City, MO-KS",312,,
AP202109019,09/17/21,Data Services,Velvet Tech Services-Kansas City,nw 124th st and outer rd,Kansas City,Clay,AP:  Section 5 Permit Issued,AP: Sec 5 & 6: Deminimis and Minor,05/19/22,,,052022-012,244,,,AP0000470211,39.31815,-94.581789,1,street_center,,NW 124th St,,,Kansas City,MO,Clay County,64165,US,TIGER/Line® dataset from the US Census Bureau,2021,29,29047,Kansas City,2938000,21900,3043,3,2.90E+14,29047021900,"Kansas City, MO-KS",28140,metropolitan,"Kansas City-Overland Park-Kansas City, MO-KS",312,,
AP202109020,09/17/21,Confidentiality for 2021-09-019,Velvet Tech Services-Kansas City,nw 124th st and outer rd,Kansas City,Clay,AP:  Request Approved,AP: Confidentiality Request,05/19/22,,,,244,,,AP0000470211,39.31815,-94.581789,1,street_center,,NW 124th St,,,Kansas City,MO,Clay County,64165,US,TIGER/Line® dataset from the US Census Bureau,2021,29,29047,Kansas City,2938000,21900,3043,3,2.90E+14,29047021900,"Kansas City, MO-KS",28140,metropolitan,"Kansas City-Overland Park-Kansas City, MO-KS",312,,
AP202202020,02/14/22,New Portable Concrete,Clarkson Construction-Gardner,4133 gardner ave,Kansas City,Jackson,AP:  Permit Issued,AP: IR Sec 5 & 6: Deminimis and Minor,05/18/22,,,052022-009,93,,,AP0202202020,39.127134,-94.532873,1,rooftop,4133,Gardner Ave,,,Kansas City,MO,Jackson County,64120,US,Jackson,2021,29,29095,Kansas City,2938000,15500,1065,1,2.91E+14,29095015500,"Kansas City, MO-KS",28140,metropolitan,"Kansas City-Overland Park-Kansas City, MO-KS",312,,
AP202204044,04/25/22,Boiler,International Paper Company,4343 clary blvd,Kansas City,Jackson,AP:  No Permit Required,AP: Sec 5 & 6: Deminimis and Minor,05/18/22,,,,23,,,AP0000952177,39.045879,-94.520965,1,rooftop,4343,Clary Blvd,,,Kansas City,MO,Jackson County,64130,US,Jackson,2021,29,29095,Kansas City,2938000,17100,4013,4,2.91E+14,29095017100,"Kansas City, MO-KS",28140,metropolitan,"Kansas City-Overland Park-Kansas City, MO-KS",312,,
AP202201034,01/24/22,New Stationary Asphalt,Ideker Inc - Amity ,9810 amity ave,Kansas City,Platte,AP:  Permit Issued,AP: IR Sec 5 & 6: Deminimis and Minor,05/10/22,,,052022-003,106,,,AP0001650047,39.276466,-94.691381,0.9,rooftop,9810,N Amity Ave,,,Kansas City,MO,Platte County,64153,US,City of Kansas City,2021,29,29165,Kansas City,2938000,30308,4002,4,2.92E+14,29165030308,"Kansas City, MO-KS",28140,metropolitan,"Kansas City-Overland Park-Kansas City, MO-KS",312,,
AP202201035,01/26/22,Crusher Change,Kissick Construction - Denver,5734 denver ave,Kansas City,Jackson,AP:  Section 5 Permit Issued,AP: IR Sec 5 & 6: Deminimis and Minor,04/13/22,,,42022003,77,,,AP0201908034,39.020807,-94.525856,1,rooftop,5734,Denver Ave,,,Kansas City,MO,Jackson County,64130,US,Jackson,2021,29,29095,Kansas City,2938000,7802,2012,2,2.91E+14,29095007802,"Kansas City, MO-KS",28140,metropolitan,"Kansas City-Overland Park-Kansas City, MO-KS",312,,
AP202203020,03/08/22,Concrete,Geiger Ready Mix-Troost,troost and bannister rd,Kansas City,Jackson,AP:  Section 4 Permit Issued,AP: Sec 4: Relocate to New Site,03/21/22,,,072021-015A,13,,,AP0202203027,38.955467,-94.580717,0.57,intersection,,E Bannister Rd,,,Kansas City,MO,Jackson County,64131,US,TIGER/Line® dataset from the US Census Bureau,2021,29,29095,Kansas City,2938000,9700,1001,1,2.91E+14,29095010103,"Kansas City, MO-KS",28140,metropolitan,"Kansas City-Overland Park-Kansas City, MO-KS",312,,
AP202202019,02/09/22,Temporary Boiler,Miles Inc (Bayer Corp),8400 hawthorne rd,Kansas City,Jackson,AP:  Temporary Permit Issued,AP: Temporary or Pilot Plant Permit,03/16/22,,,032022-013,35,,,AP0000950011,39.12172,-94.478888,1,rooftop,8400,Hawthorne Rd,,,Kansas City,MO,Jackson County,64120,US,Jackson,2021,29,29095,Kansas City,2938000,15500,2003,2,2.91E+14,29095015500,"Kansas City, MO-KS",28140,metropolitan,"Kansas City-Overland Park-Kansas City, MO-KS",312,,
AP202203027,03/08/22,Concrete,Geiger Ready Mix-Troost,troost and bannister rd,Kansas City,Jackson,AP:  Application Withdrawn by Applicant,AP: Sec 4: Relocate to New Site,03/16/22,,,072021-007,8,,,AP0202203027,38.955467,-94.580717,0.57,intersection,,E Bannister Rd,,,Kansas City,MO,Jackson County,64131,US,TIGER/Line® dataset from the US Census Bureau,2021,29,29095,Kansas City,2938000,9700,1001,1,2.91E+14,29095010103,"Kansas City, MO-KS",28140,metropolitan,"Kansas City-Overland Park-Kansas City, MO-KS",312,,
AP202106046,06/21/21,Evaluate PTE for OP Applicability,Research Medical Center,2316 e meyer blvd,Kansas City,Jackson,AP:  No Permit Required,AOP: Applicability Determination Requests,03/14/22,,,OP,266,,,AP0000952054,39.009222,-94.560735,1,rooftop,2316,E Meyer Blvd,,,Kansas City,MO,Jackson County,64132,US,Jackson,2021,29,29095,Kansas City,2938000,8700,1001,1,2.91E+14,29095008700,"Kansas City, MO-KS",28140,metropolitan,"Kansas City-Overland Park-Kansas City, MO-KS",312,,
AP202201026,01/28/22,Generators,CUSHMAN WAKEFIELD MASTERCARD KC DATA CENTER,11530 ambassador dr,Kansas City,Platte,AP:  Permit Required,AOP: Applicability Determination Requests,03/11/22,,,,42,,,AP0001652420,39.302412,-94.684802,0.9,rooftop,11530,N Ambassador Dr,,,Kansas City,MO,Platte County,64153,US,Platte County,2021,29,29165,Kansas City,2938000,30201,4013,4,2.92E+14,29165030201,"Kansas City, MO-KS",28140,metropolitan,"Kansas City-Overland Park-Kansas City, MO-KS",312,,
AP202201036,01/18/22,Asphalt,Ideker Inc - Andrews Rd,14911 andrews rd,Kansas City,Jackson,AP:  Section 4 Permit Issued,AP: Sec 4: Relocate to New Site,02/25/22,,,1465E,38,,,AP0202201036,38.852912,-94.537917,1,rooftop,14911,Andrews Rd,,,Kansas City,MO,Jackson County,64147,US,Jackson,2021,29,29095,Kansas City,2938000,13405,1027,1,2.91E+14,29095013405,"Kansas City, MO-KS",28140,metropolitan,"Kansas City-Overland Park-Kansas City, MO-KS",312,,
AP202202016,02/08/22,Material Crushing,Metropolitan Concrete Recycling,401 atlantic,Kansas City,Clay,AP:  Section 4 Permit Issued,AP: Sec 4: Relocate Approved Site,02/09/22,,,062020-001,1,2/20/23,,AP0202009007,39.167287,-94.452543,1,range_interpolation,401,Atlantic Rd,,,Birmingham,MO,Clay County,64161,US,TIGER/Line® dataset from the US Census Bureau,2021,29,29047,Birmingham,2905824,22200,3086,3,2.90E+14,29047022200,"Kansas City, MO-KS",28140,metropolitan,"Kansas City-Overland Park-Kansas City, MO-KS",312,,
AP202103010,03/02/21,Sausage and food products,Smithfield Farmland,13825 wyandotte street,Kansas City,Jackson,AP:  Operating Permit Issued,AOP: Part 70 Operating Permit,02/07/22,,,OP2022-001,342,,,AP0000952002,38.876809,-94.598311,1,rooftop,13825,Wyandotte St,,,Kansas City,MO,Jackson County,64145,US,Jackson,2021,29,29095,Kansas City,2938000,13405,2011,2,2.91E+14,29095013405,"Kansas City, MO-KS",28140,metropolitan,"Kansas City-Overland Park-Kansas City, MO-KS",312,,
AP202110027,10/12/21,Air Compressor,International Paper Company,4343 clary blvd,Kansas City,Jackson,AP:  No Permit Required,AP: Applicability Determination Request,01/25/22,,,,105,,,AP0000952177,39.045879,-94.520965,1,rooftop,4343,Clary Blvd,,,Kansas City,MO,Jackson County,64130,US,Jackson,2021,29,29095,Kansas City,2938000,17100,4013,4,2.91E+14,29095017100,"Kansas City, MO-KS",28140,metropolitan,"Kansas City-Overland Park-Kansas City, MO-KS",312,,
AP202012012,12/09/20,PAL Renewal,Ford Motor Company - Kansas City Plant,8121 e us hwy 69,Kansas City,Clay,AP:  Section 7 Permit Issued,"AP: Section 7, 8 & 9 Major Source Review",01/14/22,,,012022-007,401,,,AP0000470019,38.998953,-94.49297,0.8,range_interpolation,8121,E 69th St,,,Kansas City,MO,Jackson County,64133,US,TIGER/Line® dataset from the US Census Bureau,2021,29,29095,Kansas City,2938000,17500,1029,1,2.91E+14,29095017500,"Kansas City, MO-KS",28140,metropolitan,"Kansas City-Overland Park-Kansas City, MO-KS",312,,
AP202105042,05/27/21,Equipment Update,Stryten KCMO LLC,7601 nw 107th terr.,Kansas City,Platte,AP:  Amendment Approved,AP: Sec 5 & 6: Deminimis and Minor,11/24/21,,,112016-002A,181,,,AP0001650043,39.287066,-94.669623,1,rooftop,7601,NW 107th Ter,,,Kansas City,MO,Platte County,64153,US,Platte County,2021,29,29165,Kansas City,2938000,30201,4032,4,2.92E+14,29165030201,"Kansas City, MO-KS",28140,metropolitan,"Kansas City-Overland Park-Kansas City, MO-KS",312,,
AP202108020,08/17/21,Concrete Crushing,Heartstone Inc,mexico city ave,Kansas City,Platte,AP:  Section 5 Permit Issued,AP: IR Sec 5 & 6: Deminimis and Minor,10/04/21,,,102021-001,48,,,AP0202108020,39.319106,-94.714728,1,street_center,,Mexico City Ave,,,Kansas City,MO,Platte County,64153,US,TIGER/Line® dataset from the US Census Bureau,2021,29,29165,Kansas City,2938000,980000,1011,1,2.92E+14,29165980000,"Kansas City, MO-KS",28140,metropolitan,"Kansas City-Overland Park-Kansas City, MO-KS",312,,
AP202001028,01/22/20,Emission Limits,"Cargill, Inc.",2306 rochester st,Kansas City,Jackson,"AP:  Closed out, per policy",AOP: Part 70 Operating Permit Minor Modification,09/23/21,,,,610,,,AP0000952001,39.121091,-94.555817,1,range_interpolation,2306,Rochester St,,,Kansas City,MO,Jackson County,64120,US,TIGER/Line® dataset from the US Census Bureau,2021,29,29095,Kansas City,2938000,15500,1082,1,2.91E+14,29095015500,"Kansas City, MO-KS",28140,metropolitan,"Kansas City-Overland Park-Kansas City, MO-KS",312,,
AP202105025,05/17/21,Solvents,Anderson Rail Service,8116 wilson rd,Kansas City,Jackson,AP:  Section 5 Permit Issued,AP: Sec 5 & 6: Deminimis and Minor,08/17/21,,,082021-011,92,,,APB000952452,39.110333,-94.4907,1,rooftop,8116,Wilson Rd,,,Kansas City,MO,Jackson County,64125,US,City of Kansas City,2021,29,29095,Kansas City,2938000,15500,1119,1,2.91E+14,29095015500,"Kansas City, MO-KS",28140,metropolitan,"Kansas City-Overland Park-Kansas City, MO-KS",312,,
AP202106043,06/21/21,New Portable Concrete,Geiger Ready Mix - KCI Airport,northwest airport dr,Kansas City,Platte,AP:  Section 5 Permit Issued,AP: Sec 5 & 6: Deminimis and Minor,07/27/21,,,072021-015,36,,,AP0202106043,39.102404,-94.598583,0.5,place,,,,,Kansas City,MO,Jackson County,64101,US,TIGER/Line® dataset from the US Census Bureau,2021,29,29095,Kansas City,2938000,15200,3049,3,2.91E+14,29095015200,"Kansas City, MO-KS",28140,metropolitan,"Kansas City-Overland Park-Kansas City, MO-KS",312,,
AP202103055,03/25/21,Truck Equipment and repair,Knapheide Truck Equipment,7200 ne 45th st,Kansas City,Clay,AP:  Section 5 Permit Issued,AP: Sec 5 & 6: Deminimis and Minor,07/16/21,,,072021-004,113,,,AP0000472459,39.176113,-94.495098,1,rooftop,7200,NE 45th St,,,Kansas City,MO,Clay County,64117,US,City of Kansas City,2021,29,29047,Kansas City,2938000,20604,1005,1,2.90E+14,29047020604,"Kansas City, MO-KS",28140,metropolitan,"Kansas City-Overland Park-Kansas City, MO-KS",312,,
AP202105024,05/14/21,Pugmill,Clarkson Construction Co,mexico city & tel aviv ave,Kansas City,Platte,AP:  Section 5 Permit Issued,AP: IR Sec 5 & 6: Deminimis and Minor,06/23/21,,,062021-016,40,,,AP0001652423,39.314828,-94.715565,0.44,intersection,,Mexico City Ave,,,Kansas City,MO,Platte County,64153,US,TIGER/Line® dataset from the US Census Bureau,2021,29,29165,Kansas City,2938000,980000,1028,1,2.92E+14,29165980000,"Kansas City, MO-KS",28140,metropolitan,"Kansas City-Overland Park-Kansas City, MO-KS",312,,
AP202103015,03/05/21,Air Stripper,Department of Energy Kansas City Plant,2000 e bannister rd,Kansas City,Jackson,AP:  No Permit Required,AP: Applicability Determination Request,05/19/21,,,,75,,,AP0000950005,38.958178,-94.565192,1,rooftop,2000,E Bannister Rd,,,Kansas City,MO,Jackson County,64131,US,Jackson,2021,29,29095,Kansas City,2938000,9600,3024,3,2.91E+14,29095009600,"Kansas City, MO-KS",28140,metropolitan,"Kansas City-Overland Park-Kansas City, MO-KS",312,,
AP202103058,03/31/21,Crushed reclamation material,Industrial Salvage & Wrecking,3570 gardner ave,Kansas City,Jackson,AP:  Section 5 Permit Issued,AP: IR Sec 5 & 6: Deminimis and Minor,05/06/21,,,052021-001,36,,,AP0000950407,39.127967,-94.538196,1,rooftop,3570,Gardner Ave,,,Kansas City,MO,Jackson County,64120,US,Jackson,2021,29,29095,Kansas City,2938000,15500,1054,1,2.91E+14,29095015500,"Kansas City, MO-KS",28140,metropolitan,"Kansas City-Overland Park-Kansas City, MO-KS",312,,
AP202104018,04/12/21,Concrete,Clarkson Construction Co,mexico city & tel aviv ave,Kansas City,Platte,AP:  Section 4 Permit Issued,AP: Sec 4: Relocate to New Site,04/26/21,,,0585-019C,14,,,AP0001652423,39.314828,-94.715565,0.44,intersection,,Mexico City Ave,,,Kansas City,MO,Platte County,64153,US,TIGER/Line® dataset from the US Census Bureau,2021,29,29165,Kansas City,2938000,980000,1028,1,2.92E+14,29165980000,"Kansas City, MO-KS",28140,metropolitan,"Kansas City-Overland Park-Kansas City, MO-KS",312,,
AP202002040,02/24/20,Termination of OP2018-097.,Sun Chemical,6989 ne corporate dr,Kansas City,Jackson,AP:  No Permit Required,AOP: Intermediate Operating Permit Amendment,04/08/21,,,OP,409,,,AP0000952431,39.137248,-94.499446,1,rooftop,6989,Corporate Dr,,,Kansas City,MO,Jackson County,64120,US,Jackson,2021,29,29095,Kansas City,2938000,15500,1013,1,2.91E+14,29095015500,"Kansas City, MO-KS",28140,metropolitan,"Kansas City-Overland Park-Kansas City, MO-KS",312,,
AP202008028,08/25/20,Meal Truck Loadout bay,"Cargill, Inc.",2306 rochester st,Kansas City,Jackson,AP:  Section 5 Permit Issued,AP: Sec 5 & 6: Deminimis and Minor,04/08/21,,,042021-002,226,,,AP0000952001,39.121091,-94.555817,1,range_interpolation,2306,Rochester St,,,Kansas City,MO,Jackson County,64120,US,TIGER/Line® dataset from the US Census Bureau,2021,29,29095,Kansas City,2938000,15500,1082,1,2.91E+14,29095015500,"Kansas City, MO-KS",28140,metropolitan,"Kansas City-Overland Park-Kansas City, MO-KS",312,,
AP201906040,06/18/19,Property Distance,Superior Asphalt Company,9001 hickman mills dr,Kansas City,Jackson,AP:  Permit Issued,AP: Local CP,03/23/21,,,1111A,644,,,AP0000952052,38.963421,-94.539909,1,rooftop,9001,Hickman Mills Dr,,,Kansas City,MO,Jackson County,64132,US,Jackson,2021,29,29095,Kansas City,2938000,17400,3004,3,2.91E+14,29095017400,"Kansas City, MO-KS",28140,metropolitan,"Kansas City-Overland Park-Kansas City, MO-KS",312,,
AP201901005,01/07/19,Equipment Listing,Sun Chemical,6989 ne corporate dr,Kansas City,Jackson,AP:  Section 5 Permit Issued,AP: Sec 5 & 6: Deminimis and Minor,03/23/21,,,032021-009,806,,,AP0000952431,39.137248,-94.499446,1,rooftop,6989,Corporate Dr,,,Kansas City,MO,Jackson County,64120,US,Jackson,2021,29,29095,Kansas City,2938000,15500,1013,1,2.91E+14,29095015500,"Kansas City, MO-KS",28140,metropolitan,"Kansas City-Overland Park-Kansas City, MO-KS",312,,
AP202102050,02/24/21,Funeral Home Incinerator,"Funeral DirectorÔøΩs Service, Inc.",1409 illinois,Kansas City,Jackson,AP:  Permit Issued,AP: Permit-by-Rule,03/03/21,,,032021-002,7,,,AP0000952477,39.09549,-94.545665,1,rooftop,1409,Illinois Ave,,,Kansas City,MO,Jackson County,64127,US,Jackson,2021,29,29095,Kansas City,2938000,16000,1032,1,2.91E+14,29095016000,"Kansas City, MO-KS",28140,metropolitan,"Kansas City-Overland Park-Kansas City, MO-KS",312,,
AP202012035,12/23/20,Rock Crushing,J.A. Lillig Excavating Inc,1179 mexico city ave,Kansas City,Platte,AP:  Section 5 Permit Issued,AP: IR Sec 5 & 6: Deminimis and Minor,02/18/21,,,022021-005,57,,,AP0201906022,39.327373,-94.711837,1,range_interpolation,1179,Mexico City Ave,,,Kansas City,MO,Platte County,64153,US,TIGER/Line® dataset from the US Census Bureau,2021,29,29165,Kansas City,2938000,980000,1024,1,2.92E+14,29165980000,"Kansas City, MO-KS",28140,metropolitan,"Kansas City-Overland Park-Kansas City, MO-KS",312,,
AP202101015,01/14/21,Rock Crushing,Riverside Composting & Recycling,e 87th st & drury ave,Kansas City,Jackson,AP:  Section 4 Permit Issued,AP: Sec 4: Relocate to New Site,02/08/21,,,092006-001G,25,,,AP0202101015,38.96967,-94.525129,0.79,intersection,,Drury Ave,,,Kansas City,MO,Jackson County,64132,US,TIGER/Line® dataset from the US Census Bureau,2021,29,29095,Kansas City,2938000,17200,3026,3,2.91E+14,29095017200,"Kansas City, MO-KS",28140,metropolitan,"Kansas City-Overland Park-Kansas City, MO-KS",312,,
AP202009022,09/17/20,NOx reallocation,CenterPoint,14510 botts rd,Kansas City,Jackson,AP:  Amendment Approved,AP: Corrections & Amendments,01/20/21,,,022018-007B,125,,,AP0000952450,38.864149,-94.552191,1,rooftop,14510,Botts Rd,,,Kansas City,MO,Jackson County,64147,US,Jackson,2021,29,29095,Kansas City,2938000,13405,1003,1,2.91E+14,29095013405,"Kansas City, MO-KS",28140,metropolitan,"Kansas City-Overland Park-Kansas City, MO-KS",312,,
AP202012034,12/23/20,Rock Crushing,J.A. Lillig Excavating-Blue Ridge,4507 blue ridge cutoff,Kansas City,Jackson,AP:  Section 4 Permit Issued,AP: Sec 4: Relocate to New Site,01/05/21,,,092019-006A,13,,,AP0202012034,39.041206,-94.474226,1,rooftop,4507,Blue Ridge Cut Off,,,Kansas City,MO,Jackson County,64133,US,Jackson,2021,29,29095,Kansas City,2938000,10702,2005,2,2.91E+14,29095010702,"Kansas City, MO-KS",28140,metropolitan,"Kansas City-Overland Park-Kansas City, MO-KS",312,,
AP202008033,08/27/20,"Boilers, emergency generator",Research Medical Center - Brookside,6601 rockhill rd,Kansas City,Jackson,AP:  No Permit Required,AP: Applicability Determination Request,11/02/20,,,,67,,,AP0000952087,39.007721,-94.575888,1,rooftop,6601,Rockhill Rd,,,Kansas City,MO,Jackson County,64131,US,Jackson,2021,29,29095,Kansas City,2938000,8600,1008,1,2.91E+14,29095008600,"Kansas City, MO-KS",28140,metropolitan,"Kansas City-Overland Park-Kansas City, MO-KS",312,,
AP202009028,09/24/20,IC engine update,Department of Energy,botts rd & hwy 150,Kansas City,Jackson,AP:  Amendment Approved,AP: Corrections & Amendments,10/28/20,,,032018-001B,34,,,AP0000952442,38.860386,-94.546312,0.64,intersection,,Botts Rd,,,Grandview,MO,Jackson County,64030,US,TIGER/Line® dataset from the US Census Bureau,2021,29,29095,Kansas City,2938000,13405,1002,1,2.91E+14,29095013405,"Kansas City, MO-KS",28140,metropolitan,"Kansas City-Overland Park-Kansas City, MO-KS",312,,
AP202009038,09/29/20,Emergency use boiler,Vicinity Energy-Grand Avenue Station,115 grand ave,Kansas City,Jackson,AP:  Application Withdrawn by Applicant,AP: Temporary or Pilot Plant Permit,10/01/20,,,,2,,,AP0000950021,39.111405,-94.580806,1,range_interpolation,115,Grand Ave,,,Kansas City,MO,Jackson County,64106,US,TIGER/Line® dataset from the US Census Bureau,2021,29,29095,Kansas City,2938000,15200,1001,1,2.91E+14,29095015200,"Kansas City, MO-KS",28140,metropolitan,"Kansas City-Overland Park-Kansas City, MO-KS",312,,
AP202009007,09/09/20,Material Crushing,Metropolitan Concrete Recycling,401 atlantic,Kansas City,Clay,AP:  Section 4 Permit Issued,AP: Sec 4: Relocate to New Site,09/24/20,,,062020-001A,15,,,AP0202009007,39.167287,-94.452543,1,range_interpolation,401,Atlantic Rd,,,Birmingham,MO,Clay County,64161,US,TIGER/Line® dataset from the US Census Bureau,2021,29,29047,Birmingham,2905824,22200,3086,3,2.90E+14,29047022200,"Kansas City, MO-KS",28140,metropolitan,"Kansas City-Overland Park-Kansas City, MO-KS",312,,
AP202003005,03/04/20,HAP Limits,Veolia Energy - Kansas City,115 grand ave,Kansas City,Jackson,AP:  Amendment Approved,AOP: Part 70 Operating Permit Sign. Modification,09/10/20,,,OP2018-006A,190,2/2/23,,APC000950021,39.111405,-94.580806,1,range_interpolation,115,Grand Ave,,,Kansas City,MO,Jackson County,64106,US,TIGER/Line® dataset from the US Census Bureau,2021,29,29095,Kansas City,2938000,15200,1001,1,2.91E+14,29095015200,"Kansas City, MO-KS",28140,metropolitan,"Kansas City-Overland Park-Kansas City, MO-KS",312,,
AP202007021,07/14/20,Concrete Batch Plant,Concrete Strategies Inc-Bannister,east bannister & santa fe,Kansas City,Jackson,AP:  Section 5 Permit Issued,AP: IR Sec 5 & 6: Deminimis and Minor,09/08/20,,,092020-005,56,,,AP0000950405,39.102404,-94.598583,0.5,place,,,,,Kansas City,MO,Jackson County,64101,US,TIGER/Line® dataset from the US Census Bureau,2021,29,29095,Kansas City,2938000,15200,3049,3,2.91E+14,29095015200,"Kansas City, MO-KS",28140,metropolitan,"Kansas City-Overland Park-Kansas City, MO-KS",312,,
AP202005033,05/05/20,NOx changes,CenterPoint,14510 botts rd,Kansas City,Jackson,AP:  Amendment Approved,AP: Corrections & Amendments,08/26/20,,,022018-007A ,113,,,AP0000952450,38.864149,-94.552191,1,rooftop,14510,Botts Rd,,,Kansas City,MO,Jackson County,64147,US,Jackson,2021,29,29095,Kansas City,2938000,13405,1003,1,2.91E+14,29095013405,"Kansas City, MO-KS",28140,metropolitan,"Kansas City-Overland Park-Kansas City, MO-KS",312,,
AP201909046,09/26/19,Mobile Carbonator,Sequest,1221 w 103rd st,Kansas City,Jackson,"AP:  Closed Out, Inactive",AP: Applicability Determination Request,08/24/20,,,,333,,,AP0201909046,38.941266,-94.606382,1,rooftop,1221,W 103rd St,,,Kansas City,MO,Jackson County,64114,US,Jackson,2021,29,29095,Kansas City,2938000,10001,2012,2,2.91E+14,29095010001,"Kansas City, MO-KS",28140,metropolitan,"Kansas City-Overland Park-Kansas City, MO-KS",312,,
AP202003015,03/10/20,Small IC engines,Department of Energy,botts rd & hwy 150,Kansas City,Jackson,AP:  Amendment Approved,AP: Corrections & Amendments,08/07/20,,,032018-001A,150,,,AP0000952442,38.860386,-94.546312,0.64,intersection,,Botts Rd,,,Grandview,MO,Jackson County,64030,US,TIGER/Line® dataset from the US Census Bureau,2021,29,29095,Kansas City,2938000,13405,1002,1,2.91E+14,29095013405,"Kansas City, MO-KS",28140,metropolitan,"Kansas City-Overland Park-Kansas City, MO-KS",312,,
AP202006042,06/26/20,Rock Crushing,Thomas Crushing - Hwy 40,7700 e 40 hwy,Kansas City,Jackson,AP:  Section 4 Permit Issued,AP: Sec 4: Relocate to New Site,07/07/20,,,032017-007E,11,,,AP0202006042,39.066425,-94.49441,0.95,rooftop,7700,E US 40 Hwy,,,Kansas City,MO,Jackson County,64129,US,Jackson,2021,29,29095,Kansas City,2938000,16300,1001,1,2.91E+14,29095016300,"Kansas City, MO-KS",28140,metropolitan,"Kansas City-Overland Park-Kansas City, MO-KS",312,,
AP202003030,03/19/20,Staging area,"Mark II Transfer Station, LLC",6709 e 40 hwy,Kansas City,Jackson,AP:  No Permit Required,AP: Applicability Determination Request,06/04/20,,,,77,,,AP0201906046,39.069127,-94.502432,0.95,rooftop,6709,E US 40 Hwy,,,Kansas City,MO,Jackson County,64129,US,Jackson,2021,29,29095,Kansas City,2938000,16300,1031,1,2.91E+14,29095016300,"Kansas City, MO-KS",28140,metropolitan,"Kansas City-Overland Park-Kansas City, MO-KS",312,,
AP202005027,05/18/20,Human remains cremation,"Funeral DirectorÔøΩs Service, Inc.",1409 illinois,Kansas City,Jackson,AP:  Permit Issued,AP: Permit-by-Rule,05/19/20,,,052020-008,1,,,AP0000952477,39.09549,-94.545665,1,rooftop,1409,Illinois Ave,,,Kansas City,MO,Jackson County,64127,US,Jackson,2021,29,29095,Kansas City,2938000,16000,1032,1,2.91E+14,29095016000,"Kansas City, MO-KS",28140,metropolitan,"Kansas City-Overland Park-Kansas City, MO-KS",312,,
AP202001030,01/22/20,Update PTE,Smithfield Farmland,13825 wyandotte street,Kansas City,Jackson,AP:  Section 5 Permit Issued,AP: Sec 5 & 6: Deminimis and Minor,05/07/20,,,052020-001,106,,,AP0000952002,38.876809,-94.598311,1,rooftop,13825,Wyandotte St,,,Kansas City,MO,Jackson County,64145,US,Jackson,2021,29,29095,Kansas City,2938000,13405,2011,2,2.91E+14,29095013405,"Kansas City, MO-KS",28140,metropolitan,"Kansas City-Overland Park-Kansas City, MO-KS",312,,
AP201906029,06/13/19,SSM Conditions,Kansas City Power & Light Co (Hawthorn),8700 hawthorne rd,Kansas City,Jackson,AP:  Amendment Approved,"AP: Section 7, 8 & 9 Major Source Review",05/01/20,,,883B,323,,,AP0000950022,39.130505,-94.478423,1,rooftop,8700,Hawthorne Rd,,,Kansas City,MO,Jackson County,64120,US,Jackson,2021,29,29095,Kansas City,2938000,15500,2006,2,2.91E+14,29095015500,"Kansas City, MO-KS",28140,metropolitan,"Kansas City-Overland Park-Kansas City, MO-KS",312,,
AP201906016,06/10/19,Recordkeeping,AT&T,2121 e 63rd st,Kansas City,Jackson,AP:  Amendment Approved,AP: Corrections & Amendments,04/17/20,,,779-B,312,,,AP0000952187,39.010578,-94.56274,1,rooftop,2121,E 63rd St,,,Kansas City,MO,Jackson County,64130,US,Jackson,2021,29,29095,Kansas City,2938000,8700,1004,1,2.91E+14,29095008700,"Kansas City, MO-KS",28140,metropolitan,"Kansas City-Overland Park-Kansas City, MO-KS",312,,
AP202002028,02/20/20,Screening Unit,Hot Mix Materials Inc,2701 east 85th street,Kansas City,Jackson,AP:  No Permit Required,AP: IR Applicability Determination Request,03/11/20,,,,20,,,AP0000952440,38.971691,-94.557217,1,rooftop,2701,E 85th St,,,Kansas City,MO,Jackson County,64132,US,Jackson,2021,29,29095,Kansas City,2938000,9600,3016,3,2.91E+14,29095009600,"Kansas City, MO-KS",28140,metropolitan,"Kansas City-Overland Park-Kansas City, MO-KS",312,,
AP202002027,02/19/20,Asphalt,Ideker Inc.,kci airport,Kansas City,Platte,AP:  Section 4 Permit Issued,AP: Sec 4: Relocate to New Site,02/25/20,,,1465,6,3/13/21,,AP0001652461,39.297123,-94.694354,1,street_center,,Airport Dr,,,Kansas City,MO,Platte County,64153,US,TIGER/Line® dataset from the US Census Bureau,2021,29,29165,Kansas City,2938000,980000,1063,1,2.92E+14,29165980000,"Kansas City, MO-KS",28140,metropolitan,"Kansas City-Overland Park-Kansas City, MO-KS",312,,
AP202001002,01/02/20,Recordkeeping,Kansas City Power & Light Co (Hawthorn),8700 hawthorne rd,Kansas City,Jackson,AP:  Amendment Approved,AP: Corrections & Amendments,01/30/20,,,927A,28,,,AP0000950022,39.130505,-94.478423,1,rooftop,8700,Hawthorne Rd,,,Kansas City,MO,Jackson County,64120,US,Jackson,2021,29,29095,Kansas City,2938000,15500,2006,2,2.91E+14,29095015500,"Kansas City, MO-KS",28140,metropolitan,"Kansas City-Overland Park-Kansas City, MO-KS",312,,
AP202001013,01/14/20,Human Cremation,"Mason Crematory, LLC",8520 prospect ave,Kansas City,Jackson,AP:  Permit Issued,AP: Permit-by-Rule,01/22/20,,,012020-015,8,,,AP0000950338,38.971157,-94.55845,1,rooftop,8520,Prospect Ave,,,Kansas City,MO,Jackson County,64132,US,Jackson,2021,29,29095,Kansas City,2938000,9600,3017,3,2.91E+14,29095009600,"Kansas City, MO-KS",28140,metropolitan,"Kansas City-Overland Park-Kansas City, MO-KS",312,,
AP201911019,11/20/19,Inlet CEMS Removal,Kansas City Power & Light Co (Hawthorn),8700 hawthorne rd,Kansas City,Jackson,AP:  Amendment Approved,AP: Corrections & Amendments,01/10/20,,,888A,51,,,AP0000950022,39.130505,-94.478423,1,rooftop,8700,Hawthorne Rd,,,Kansas City,MO,Jackson County,64120,US,Jackson,2021,29,29095,Kansas City,2938000,15500,2006,2,2.91E+14,29095015500,"Kansas City, MO-KS",28140,metropolitan,"Kansas City-Overland Park-Kansas City, MO-KS",312,,
AP201903053,02/28/19,SVE Wells,AECOM - Cintas Site,1735 cherry st,Kansas City,Jackson,AP:  No Permit Required,AP: Applicability Determination Request,01/06/20,,,,312,,,AP0201903053,39.091752,-94.576345,1,rooftop,1735,Cherry St,,,Kansas City,MO,Jackson County,64108,US,Jackson,2021,29,29095,Kansas City,2938000,15800,2050,2,2.91E+14,29095015800,"Kansas City, MO-KS",28140,metropolitan,"Kansas City-Overland Park-Kansas City, MO-KS",312,,
AP201912028,12/20/19,Temporary Boilers,Miles Inc (Bayer Corp),8400 hawthorne rd,Kansas City,Jackson,AP:  Temporary Permit Issued,AP: Temporary or Pilot Plant Permit,12/31/19,,,122019-011,11,,,AP0000950011,39.12172,-94.478888,1,rooftop,8400,Hawthorne Rd,,,Kansas City,MO,Jackson County,64120,US,Jackson,2021,29,29095,Kansas City,2938000,15500,2003,2,2.91E+14,29095015500,"Kansas City, MO-KS",28140,metropolitan,"Kansas City-Overland Park-Kansas City, MO-KS",312,,
AP201910046,10/29/19,Add Crusher Combine Ports  0787 0802 0803,Renascent Inc - KCI Airport,mexico city avenue,Kansas City,Platte,AP:  Section 5 Permit Issued,AP: IR Sec 5 & 6: Deminimis and Minor,11/25/19,,,112019-009,27,,,AP0001650045,39.319106,-94.714728,1,street_center,,Mexico City Ave,,,Kansas City,MO,Platte County,64153,US,TIGER/Line® dataset from the US Census Bureau,2021,29,29165,Kansas City,2938000,980000,1011,1,2.92E+14,29165980000,"Kansas City, MO-KS",28140,metropolitan,"Kansas City-Overland Park-Kansas City, MO-KS",312,,
AP201909043,09/24/19,Cell Equipment,Verizon Wireless,5171 ne chouteau tfwy,Kansas City,Jackson,AP:  No Permit Required,AP: Applicability Determination Request,11/08/19,,,,45,,,AP0201909043,39.187415,-94.544421,0.95,rooftop,5171,NE Chouteau Trfy,,,Kansas City,MO,Clay County,64119,US,City of Kansas City,2021,29,29047,Kansas City,2938000,20901,2002,2,2.90E+14,29047020901,"Kansas City, MO-KS",28140,metropolitan,"Kansas City-Overland Park-Kansas City, MO-KS",312,,
AP201908085,08/30/19,New Presses,Allied Lithographing Co. Inc,2100 e 10th,Kansas City,Jackson,AP:  Section 5 Permit Issued,AP: Sec 5 & 6: Deminimis and Minor,10/29/19,,,102019-013,60,,#https://dnr.mo.gov/env/apcp/permits/docs/alliedlith-kc-2019cp.pdf#,AP0000950016,39.10158,-94.557079,1,range_interpolation,2100,E 10th St,,,Kansas City,MO,Jackson County,64127,US,TIGER/Line® dataset from the US Census Bureau,2021,29,29095,Kansas City,2938000,15402,2004,2,2.91E+14,29095015402,"Kansas City, MO-KS",28140,metropolitan,"Kansas City-Overland Park-Kansas City, MO-KS",312,,
AP201910045,08/29/19,Notification file for PAL Permit No. 072011-009,Ford Motor Company - Kansas City Plant,8121 e us hwy 69,Kansas City,Clay,AP:  Amendment Approved,AP: Corrections & Amendments,10/25/19,,,,57,,,AP0000470019,38.998953,-94.49297,0.8,range_interpolation,8121,E 69th St,,,Kansas City,MO,Jackson County,64133,US,TIGER/Line® dataset from the US Census Bureau,2021,29,29095,Kansas City,2938000,17500,1029,1,2.91E+14,29095017500,"Kansas City, MO-KS",28140,metropolitan,"Kansas City-Overland Park-Kansas City, MO-KS",312,,
AP201906022,06/11/19,Temporary Crushing,J.A. Lillig Excavating Inc,1179 mexico city ave,Kansas City,Platte,AP:  Section 5 Permit Issued,AP: Temporary or Pilot Plant Permit,09/17/19,,,092019-006,98,,#https://dnr.mo.gov/env/apcp/permits/docs/jalilig-p07962019cp.pdf#,AP0201906022,39.327373,-94.711837,1,range_interpolation,1179,Mexico City Ave,,,Kansas City,MO,Platte County,64153,US,TIGER/Line® dataset from the US Census Bureau,2021,29,29165,Kansas City,2938000,980000,1024,1,2.92E+14,29165980000,"Kansas City, MO-KS",28140,metropolitan,"Kansas City-Overland Park-Kansas City, MO-KS",312,,
AP201908079,08/29/19,Add crusher,Renascent Inc - KCI Airport,mexico city avenue,Kansas City,Platte,AP:  No Permit Required,AP: IR Applicability Determination Request,09/05/19,,,,7,,,AP0001650045,39.319106,-94.714728,1,street_center,,Mexico City Ave,,,Kansas City,MO,Platte County,64153,US,TIGER/Line® dataset from the US Census Bureau,2021,29,29165,Kansas City,2938000,980000,1011,1,2.92E+14,29165980000,"Kansas City, MO-KS",28140,metropolitan,"Kansas City-Overland Park-Kansas City, MO-KS",312,,
AP201810008,10/02/18,Update emission limits,"Cargill, Inc.",2306 rochester st,Kansas City,Jackson,AP:  Amendment Approved,AP: Corrections & Amendments,09/04/19,,,1140C,337,,#https://dnr.mo.gov/env/apcp/permits/docs/cargillkscity2019cp.pdf#,AP0000952001,39.121091,-94.555817,1,range_interpolation,2306,Rochester St,,,Kansas City,MO,Jackson County,64120,US,TIGER/Line® dataset from the US Census Bureau,2021,29,29095,Kansas City,2938000,15500,1082,1,2.91E+14,29095015500,"Kansas City, MO-KS",28140,metropolitan,"Kansas City-Overland Park-Kansas City, MO-KS",312,,
AP201906046,06/20/19,Waste Transfer Station,"Mark II Transfer Station, LLC",6709 e 40 hwy,Kansas City,Jackson,AP:  No Permit Required,AP: Applicability Determination Request,08/20/19,,,,61,,,AP0201906046,39.069127,-94.502432,0.95,rooftop,6709,E US 40 Hwy,,,Kansas City,MO,Jackson County,64129,US,Jackson,2021,29,29095,Kansas City,2938000,16300,1031,1,2.91E+14,29095016300,"Kansas City, MO-KS",28140,metropolitan,"Kansas City-Overland Park-Kansas City, MO-KS",312,,
AP201908034,08/14/19,Rock Crushing,Kissick Construction - Denver,5734 denver ave,Kansas City,Jackson,AP:  Section 4 Permit Issued,AP: Sec 4: Relocate to New Site,08/20/19,,,032015-006C,6,,,AP0201908034,39.020807,-94.525856,1,rooftop,5734,Denver Ave,,,Kansas City,MO,Jackson County,64130,US,Jackson,2021,29,29095,Kansas City,2938000,7802,2012,2,2.91E+14,29095007802,"Kansas City, MO-KS",28140,metropolitan,"Kansas City-Overland Park-Kansas City, MO-KS",312,,
AP201505019,05/05/15,Printed Products,"Henry Wurst, Inc",1331 saline st,Kansas City,Clay,AP:  Operating Permit Terminated,AOP: Intermediate Operating Permit Renewal,07/30/19,,,OP,1547,5/2/20,,AP0000470032,39.13274,-94.559711,1,range_interpolation,1331,Saline St,,,Kansas City,MO,Clay County,64116,US,TIGER/Line® dataset from the US Census Bureau,2021,29,29047,North Kansas City,2953102,22100,6008,6,2.90E+14,29047022100,"Kansas City, MO-KS",28140,metropolitan,"Kansas City-Overland Park-Kansas City, MO-KS",312,,
AP201907008,07/03/19,Rock Crushing,Kissick Construction - Botts,hwy 150 & botts rd,Kansas City,Jackson,AP:  Section 4 Permit Issued,AP: Sec 4: Relocate to New Site,07/18/19,,,032015-006,15,,,AP0201907008,38.862891,-94.545922,0.7,street_center,,Botts Rd,,,Grandview,MO,Jackson County,64030,US,TIGER/Line® dataset from the US Census Bureau,2021,29,29095,Kansas City,2938000,13405,1002,1,2.91E+14,29095013405,"Kansas City, MO-KS",28140,metropolitan,"Kansas City-Overland Park-Kansas City, MO-KS",312,,
AP201906018,06/10/19,Rock Crushing,Thomas Crushing,i 435 & i 70,Kansas City,Jackson,AP:  Section 4 Permit Issued,AP: Sec 4: Relocate to New Site,07/03/19,,,012005-005L,23,,,AP0201903045,39.059208,-94.490479,0.8,intersection,,I-435,,,Kansas City,MO,Jackson County,64129,US,TIGER/Line® dataset from the US Census Bureau,2021,29,29095,Kansas City,2938000,980802,1036,1,2.91E+14,29095017000,"Kansas City, MO-KS",28140,metropolitan,"Kansas City-Overland Park-Kansas City, MO-KS",312,,
AP201905028,05/17/19,Temporary conveyor,Martin Marietta Materials - Stamper,14457 interurban rd,Kansas City,Platte,AP:  No Permit Required,AP: IR Applicability Determination Request,06/28/19,,,,42,,,AP0001652403,39.355621,-94.678516,0.9,range_interpolation,14457,Interurban Rd,,,Platte City,MO,Platte County,64079,US,TIGER/Line® dataset from the US Census Bureau,2021,29,29165,,,30601,2006,2,2.92E+14,29165030601,"Kansas City, MO-KS",28140,metropolitan,"Kansas City-Overland Park-Kansas City, MO-KS",312,,
AP201902020,02/13/19,Incinerator,Kansas City Police Department,2645 locust st,Kansas City,Jackson,AP:  Section 5 Permit Issued,AP: Sec 5 & 6: Deminimis and Minor,06/10/19,,,062019-004,117,,#https://dnr.mo.gov/env/apcp/permits/docs/kcpolice2019cp.pdf#,AP0000950399,39.024747,-94.581866,0.7,street_center,,Locust St,,,Kansas City,MO,Jackson County,64110,US,TIGER/Line® dataset from the US Census Bureau,2021,29,29095,Kansas City,2938000,8200,1010,1,2.91E+14,29095008200,"Kansas City, MO-KS",28140,metropolitan,"Kansas City-Overland Park-Kansas City, MO-KS",312,,
AP201902049,02/28/19,Make PORT-0733 Stationary,Ideker Inc.,kci airport,Kansas City,Platte,AP:  Section 5 Permit Issued,AP: IR Sec 5 & 6: Deminimis and Minor,05/15/19,,,052019-005,76,,#https://dnr.mo.gov/env/apcp/permits/docs/ideker-kcityairprt2019cp.pdf#,AP0001652461,39.297123,-94.694354,1,street_center,,Airport Dr,,,Kansas City,MO,Platte County,64153,US,TIGER/Line® dataset from the US Census Bureau,2021,29,29165,Kansas City,2938000,980000,1063,1,2.92E+14,29165980000,"Kansas City, MO-KS",28140,metropolitan,"Kansas City-Overland Park-Kansas City, MO-KS",312,,
AP201904048,04/22/19,Animal Cremation,Kansas City Campus for Animal Care,7077 elmwood ave,Kansas City,Jackson,AP:  Permit Issued,AP: Permit-by-Rule,05/07/19,,,052019-003,15,,#https://dnr.mo.gov/env/apcp/permits/docs/kcanimalcare2019cp.pdf#,AP0000950401,38.997331,-94.533644,0.9,range_interpolation,7077,Elmwood Ave,,,Kansas City,MO,Jackson County,64132,US,TIGER/Line® dataset from the US Census Bureau,2021,29,29095,Kansas City,2938000,8800,4000,4,2.91E+14,29095008800,"Kansas City, MO-KS",28140,metropolitan,"Kansas City-Overland Park-Kansas City, MO-KS",312,,
AP201901046,01/18/19,Responsible Official,K. C. Power & Light Co,950 n olive st,Kansas City,Jackson,AP:  Amendment Approved,AOP: Part 70 Operating Permit Admin. Amendment,05/01/19,,,OP2016-045A,103,,,APA000950023,39.123861,-94.554586,1,range_interpolation,950,N Olive St,,,Kansas City,MO,Jackson County,64120,US,TIGER/Line® dataset from the US Census Bureau,2021,29,29095,Kansas City,2938000,15500,1083,1,2.91E+14,29095015500,"Kansas City, MO-KS",28140,metropolitan,"Kansas City-Overland Park-Kansas City, MO-KS",312,,
AP201810022,10/05/18,Fertilizer,Midwest Terminal Warehouse,1724 market st,Kansas City,Jackson,AP:  No Permit Required,AOP: Intermediate Operating Permit Renewal,04/30/19,,,OP,207,,,AP0000952201,39.10871,-94.597874,1,rooftop,1724,Market St,,,Kansas City,MO,Jackson County,64105,US,City of Kansas City,2021,29,29095,Kansas City,2938000,15200,3001,3,2.91E+14,29095015200,"Kansas City, MO-KS",28140,metropolitan,"Kansas City-Overland Park-Kansas City, MO-KS",312,,
AP201904018,04/10/19,Demolition and Remediation,Renascent Inc - KCI Airport,mexico city avenue,Kansas City,Platte,AP:  Section 5 Permit Issued,AP: IR Sec 5 & 6: Deminimis and Minor,04/30/19,,,042019-017,20,,#https://dnr.mo.gov/env/apcp/permits/docs/renasc-p07872019cp.pdf#,AP0001650045,39.319106,-94.714728,1,street_center,,Mexico City Ave,,,Kansas City,MO,Platte County,64153,US,TIGER/Line® dataset from the US Census Bureau,2021,29,29165,Kansas City,2938000,980000,1011,1,2.92E+14,29165980000,"Kansas City, MO-KS",28140,metropolitan,"Kansas City-Overland Park-Kansas City, MO-KS",312,,
AP201903064,03/29/19,Terminate OP,Martin Marietta Materials - Stamper,14457 interurban rd,Kansas City,Platte,AP:  No Permit Required,AOP: Basic Operating Permit Renewal,04/22/19,,,OP,24,,,AP0001652403,39.355621,-94.678516,0.9,range_interpolation,14457,Interurban Rd,,,Platte City,MO,Platte County,64079,US,TIGER/Line® dataset from the US Census Bureau,2021,29,29165,,,30601,2006,2,2.92E+14,29165030601,"Kansas City, MO-KS",28140,metropolitan,"Kansas City-Overland Park-Kansas City, MO-KS",312,,
AP201810003,10/01/18,Hospital,St Luke's Hospital of Kansas City,4400 wornall road,Kansas City,Jackson,AP:  No Permit Required,AOP: Basic Operating Permit Renewal,04/18/19,,,OP,199,2/3/24,,AP0000952057,39.047331,-94.590473,1,rooftop,4400,Wornall Rd,,,Kansas City,MO,Jackson County,64111,US,Jackson,2021,29,29095,Kansas City,2938000,6900,1001,1,2.91E+14,29095006900,"Kansas City, MO-KS",28140,metropolitan,"Kansas City-Overland Park-Kansas City, MO-KS",312,,
AP201812036,01/22/19,Basic Operating Permit Application,"Custom Truck & Equipment, LLC",7701 e. highway 24,Kansas City,Jackson,AP:  No Permit Required,AOP: Basic Operating Permit,04/18/19,,,OP,86,,,AP0000952476,39.103689,-94.491891,1,rooftop,7701,E US 24 Hwy,,,Kansas City,MO,Jackson County,64125,US,Jackson,2021,29,29095,Kansas City,2938000,2000,1003,1,2.91E+14,29095002000,"Kansas City, MO-KS",28140,metropolitan,"Kansas City-Overland Park-Kansas City, MO-KS",312,,
AP201903045,03/25/19,Rock Crushing,Thomas Crushing,i 435 & i 70,Kansas City,Jackson,AP:  Section 4 Permit Issued,AP: Sec 4: Relocate to New Site,04/11/19,,,032017-007B,17,4/30/20,,AP0201903045,39.059208,-94.490479,0.8,intersection,,I-435,,,Kansas City,MO,Jackson County,64129,US,TIGER/Line® dataset from the US Census Bureau,2021,29,29095,Kansas City,2938000,980802,1036,1,2.91E+14,29095017000,"Kansas City, MO-KS",28140,metropolitan,"Kansas City-Overland Park-Kansas City, MO-KS",312,,
AP201811007,11/09/18,Clay Transloading,Quality Carriers Inc,6800 st. john avenue,Kansas City,Jackson,AP:  No Permit Required,AP: Applicability Determination Request,03/27/19,,,,138,,,AP0000952027,39.115946,-94.503081,1,rooftop,6800,St John Ave,,,Kansas City,MO,Jackson County,64123,US,Jackson,2021,29,29095,Kansas City,2938000,15500,1095,1,2.91E+14,29095015500,"Kansas City, MO-KS",28140,metropolitan,"Kansas City-Overland Park-Kansas City, MO-KS",312,,
AP201903006,03/05/19,New transloading material,Quality Carriers Inc,6800 st. john avenue,Kansas City,Jackson,AP:  No Permit Required,AP: Applicability Determination Request,03/26/19,,,,21,,,AP0000952027,39.115946,-94.503081,1,rooftop,6800,St John Ave,,,Kansas City,MO,Jackson County,64123,US,Jackson,2021,29,29095,Kansas City,2938000,15500,1095,1,2.91E+14,29095015500,"Kansas City, MO-KS",28140,metropolitan,"Kansas City-Overland Park-Kansas City, MO-KS",312,,
AP201903023,03/14/19,Concrete,G2 Construction Services,tel aviv ave,Kansas City,Platte,AP:  Section 4 Permit Issued,AP: Sec 4: Relocate to New Site,03/26/19,,,,12,,,AP0201903023,39.313622,-94.711614,1,street_center,,Tel Aviv Ave,,,Kansas City,MO,Platte County,64153,US,TIGER/Line® dataset from the US Census Bureau,2021,29,29165,Kansas City,2938000,980000,1041,1,2.92E+14,29165980000,"Kansas City, MO-KS",28140,metropolitan,"Kansas City-Overland Park-Kansas City, MO-KS",312,,
AP201902023,02/11/19,Concrete,Emery Sapp & Sons I435 & US40,7900 us 40,Kansas City,Jackson,AP:  Section 4 Permit Issued,AP: Sec 4: Relocate to New Site,03/06/19,,,0793-021T,23,3/31/21,,AP0201902023,39.064172,-94.490699,1,rooftop,7900,E US 40 Hwy,,,Kansas City,MO,Jackson County,64129,US,Jackson,2021,29,29095,Kansas City,2938000,16300,1001,1,2.91E+14,29095016300,"Kansas City, MO-KS",28140,metropolitan,"Kansas City-Overland Park-Kansas City, MO-KS",312,,
AP201801053,01/29/18,Paint Manufacturing,Davis Paint Co,1311 iron st,Kansas City,Clay,AP:  Operating Permit Issued,AOP: Intermediate Operating Permit,02/26/19,,,OP2019-009,393,2/26/26,#https://dnr.mo.gov/env/apcp/permits/docs/davispaint-nkc2019op.pdf#,AP0000470040,39.132465,-94.571456,1,range_interpolation,1311,Iron St,,,Kansas City,MO,Clay County,64116,US,TIGER/Line® dataset from the US Census Bureau,2021,29,29047,North Kansas City,2953102,22100,6121,6,2.90E+14,29047022100,"Kansas City, MO-KS",28140,metropolitan,"Kansas City-Overland Park-Kansas City, MO-KS",312,,
AP201812015,12/10/18,Filter inspections,PAS Technologies Inc.,1234 atlantic st,Kansas City,Clay,AP:  Amendment Approved,AP: Corrections & Amendments,01/08/19,,,072017-017B,29,,#https://dnr.mo.gov/env/apcp/permits/docs/pastech-kc2017cpa.pdf#,AP0000470099,39.13121,-94.582353,1,range_interpolation,1234,Atlantic St,,,Kansas City,MO,Clay County,64116,US,TIGER/Line® dataset from the US Census Bureau,2021,29,29047,North Kansas City,2953102,22100,6175,6,2.90E+14,29047022100,"Kansas City, MO-KS",28140,metropolitan,"Kansas City-Overland Park-Kansas City, MO-KS",312,,
AP201510037,10/16/15,Motorcycles,Harley Davidson Motor Co,11401 n congress,Kansas City,Platte,AP:  Operating Permit Issued,AOP: Part 70 Operating Permit Renewal,12/21/18,,,OP2018-114,1162,12/21/23,#https://dnr.mo.gov/env/apcp/permits/docs/harley-davkc2019op.pdf#,AP0001652415,39.299756,-94.661893,1,rooftop,11401,N Congress Ave,,,Kansas City,MO,Platte County,64153,US,Platte County,2021,29,29165,Kansas City,2938000,30201,4015,4,2.92E+14,29165030201,"Kansas City, MO-KS",28140,metropolitan,"Kansas City-Overland Park-Kansas City, MO-KS",312,,
AP201811023,11/26/18,2 Animal Crematories,FC Industries,13508 oak st,Kansas City,Jackson,AP:  Permit Issued,AP: Permit-by-Rule,12/10/18,,,122018-005,14,,#https://dnr.mo.gov/env/apcp/permits/docs/fcindustries-kc2018cp.pdf#,AP0000952200,38.881755,-94.591567,1,rooftop,13508,Oak St,,,Kansas City,MO,Jackson County,64145,US,Jackson,2021,29,29095,Kansas City,2938000,13405,2011,2,2.91E+14,29095013405,"Kansas City, MO-KS",28140,metropolitan,"Kansas City-Overland Park-Kansas City, MO-KS",312,,
AP201809028,09/20/18,Auto Shredding,Advantage Metals Recycling,3005 manchester,Kansas City,Jackson,AP:  Received Basic OP Issued,AOP: Basic Operating Permit Renewal,11/21/18,,,OP,62,3/10/24,,AP0000950115,39.072694,-94.493883,1,rooftop,3005,Manchester Trfy,,,Kansas City,MO,Jackson County,64129,US,Jackson,2021,29,29095,Kansas City,2938000,16300,1001,1,2.91E+14,29095016300,"Kansas City, MO-KS",28140,metropolitan,"Kansas City-Overland Park-Kansas City, MO-KS",312,,
AP201810004,10/01/18,Hospital,St. Luke's Northland Hospital,5830 nw barry road,Kansas City,Platte,AP:  Received Basic OP Issued,AOP: Basic Operating Permit Renewal,11/21/18,,,OP,51,4/17/24,,AP0001652414,39.248933,-94.648379,1,rooftop,5830,NW Barry Rd,,,Kansas City,MO,Platte County,64154,US,Platte County,2021,29,29165,Kansas City,2938000,30211,2007,2,2.92E+14,29165030211,"Kansas City, MO-KS",28140,metropolitan,"Kansas City-Overland Park-Kansas City, MO-KS",312,,
AP201803043,03/21/18,Office Space,Crown Center Redevelopment,2405 grand blvd ste 200,Kansas City,Jackson,AP:  Operating Permit Issued,AOP: Intermediate Operating Permit Renewal,11/16/18,,,OP2018-079,240,11/16/23,#https://dnr.mo.gov/env/apcp/permits/docs/crownctr-kc2018op.pdf#,AP0000952007,39.081708,-94.581458,1,rooftop,2405,Grand Blvd,Ste,200,Kansas City,MO,Jackson County,64108,US,City of Kansas City,2021,29,29095,Kansas City,2938000,4400,1000,1,2.91E+14,29095004400,"Kansas City, MO-KS",28140,metropolitan,"Kansas City-Overland Park-Kansas City, MO-KS",312,,
AP201807054,07/31/18,Metal Working,Pathfinder Systems Inc.,12441 ne 41st ste,Kansas City,Clay,AP:  No Permit Required,AP: Sec 5 & 6: Deminimis and Minor,11/08/18,,,,100,,,AP0000470203,39.167071,-94.431187,1,range_interpolation,12441,NE 41st St,,,Kansas City,MO,Clay County,64161,US,TIGER/Line® dataset from the US Census Bureau,2021,29,29047,Kansas City,2938000,22200,3104,3,2.90E+14,29047022200,"Kansas City, MO-KS",28140,metropolitan,"Kansas City-Overland Park-Kansas City, MO-KS",312,,
AP201808066,08/30/18,Polyurethane Foam,Grupo Antolin - Missouri,1601 southern rd,Kansas City,Jackson,AP:  No Permit Required,AP: Sec 5 & 6: Deminimis and Minor,11/08/18,,,,70,,,AP0000950389,39.136785,-94.517058,1,rooftop,1601,Southern Rd,,,Kansas City,MO,Jackson County,64120,US,Jackson,2021,29,29095,Kansas City,2938000,15500,1142,1,2.91E+14,29095015500,"Kansas City, MO-KS",28140,metropolitan,"Kansas City-Overland Park-Kansas City, MO-KS",312,,
AP201407021,07/08/14,Ink-Making,Sun Chemical,6989 ne corporate dr,Kansas City,Jackson,AP:  Operating Permit Issued,AOP: Intermediate Operating Permit Renewal,11/07/18,,,OP2018-097,1583,11/7/23,#https://dnr.mo.gov/env/apcp/permits/docs/sunchem-stl2018op.pdf#,AP0000952431,39.137248,-94.499446,1,rooftop,6989,Corporate Dr,,,Kansas City,MO,Jackson County,64120,US,Jackson,2021,29,29095,Kansas City,2938000,15500,1013,1,2.91E+14,29095015500,"Kansas City, MO-KS",28140,metropolitan,"Kansas City-Overland Park-Kansas City, MO-KS",312,,
AP201808006,08/01/18,Pharmaceutical Research,"Catalent CTS, LLC",10245 hickman mills dr,Kansas City,Jackson,AP:  Received Basic OP Issued,AOP: Basic Operating Permit Renewal,10/24/18,,,OP,84,2/2/24,,AP0000952202,38.940306,-94.528735,1,rooftop,10245,Hickman Mills Dr,,,Kansas City,MO,Jackson County,64137,US,City of Kansas City,2021,29,29095,Kansas City,2938000,13003,2004,2,2.91E+14,29095013003,"Kansas City, MO-KS",28140,metropolitan,"Kansas City-Overland Park-Kansas City, MO-KS",312,,
AP201809012,09/13/18,,Gateway Packaging of Missouri,5910 winner road,Kansas City,Jackson,AP:  Amendment Approved,AP: Corrections & Amendments,10/22/18,,,082018-012A,39,,#https://dnr.mo.gov/env/apcp/permits/docs/gatwypkg-kc-2018cpa.pdf#,AP0000950065,39.102757,-94.512911,1,rooftop,5910,Winner Rd,,,Kansas City,MO,Jackson County,64125,US,Jackson,2021,29,29095,Kansas City,2938000,1900,1000,1,2.91E+14,29095001900,"Kansas City, MO-KS",28140,metropolitan,"Kansas City-Overland Park-Kansas City, MO-KS",312,,
AP201805047,05/22/18,Coating Cubicle,PAS Technologies Inc.,1234 atlantic st,Kansas City,Clay,AP:  Amendment Approved,AP: Sec 5 & 6: Deminimis and Minor,10/16/18,,,072017-017A,147,,,AP0000470099,39.13121,-94.582353,1,range_interpolation,1234,Atlantic St,,,Kansas City,MO,Clay County,64116,US,TIGER/Line® dataset from the US Census Bureau,2021,29,29047,North Kansas City,2953102,22100,6175,6,2.90E+14,29047022100,"Kansas City, MO-KS",28140,metropolitan,"Kansas City-Overland Park-Kansas City, MO-KS",312,,
AP201509060,09/25/15,Paper and Cardboard,International Paper Company,4343 clary blvd,Kansas City,Jackson,AP:  Operating Permit Issued,AOP: Intermediate Operating Permit Renewal,10/01/18,,,OP2018-082,1102,10/1/23,#https://dnr.mo.gov/env/apcp/permits/docs/internationalpaper-kcity2018op.pdf#,AP0000952177,39.045879,-94.520965,1,rooftop,4343,Clary Blvd,,,Kansas City,MO,Jackson County,64130,US,Jackson,2021,29,29095,Kansas City,2938000,17100,4013,4,2.91E+14,29095017100,"Kansas City, MO-KS",28140,metropolitan,"Kansas City-Overland Park-Kansas City, MO-KS",312,,
AP201807045,07/27/18,Remove testing and baghouses,Faultless Starch/BonAmi Company,1025 w 8th street,Kansas City,Jackson,AP:  Amendment Approved,AP: Corrections & Amendments,10/01/18,,,847-B,66,,,AP0000952094,39.105378,-94.59568,1,rooftop,1025,W 8th St,,,Kansas City,MO,Jackson County,64101,US,Jackson,2021,29,29095,Kansas City,2938000,15200,3033,3,2.91E+14,29095015200,"Kansas City, MO-KS",28140,metropolitan,"Kansas City-Overland Park-Kansas City, MO-KS",312,,
AP201808041,08/20/18,Grinding Products,"Moly-Cop USA, LLC",8116 wilson rd,Kansas City,Jackson,AP:  Received Basic OP Issued,AOP: Basic Operating Permit Renewal,09/10/18,,,OP,21,12/1/23,,AP0000952230,39.110333,-94.4907,1,rooftop,8116,Wilson Rd,,,Kansas City,MO,Jackson County,64125,US,City of Kansas City,2021,29,29095,Kansas City,2938000,15500,1119,1,2.91E+14,29095015500,"Kansas City, MO-KS",28140,metropolitan,"Kansas City-Overland Park-Kansas City, MO-KS",312,,
AP201710049,10/25/17,PTE Determination,Gateway Packaging of Missouri,5910 winner road,Kansas City,Jackson,AP:  Operating Permit Terminated,AOP: Applicability Determination Requests,08/15/18,,,OP,294,,,AP0000950065,39.102757,-94.512911,1,rooftop,5910,Winner Rd,,,Kansas City,MO,Jackson County,64125,US,Jackson,2021,29,29095,Kansas City,2938000,1900,1000,1,2.91E+14,29095001900,"Kansas City, MO-KS",28140,metropolitan,"Kansas City-Overland Park-Kansas City, MO-KS",312,,
AP201803002,03/01/18,Update Equipment,Gateway Packaging of Missouri,5910 winner road,Kansas City,Jackson,AP:  Section 5 Permit Issued,AP: Sec 5 & 6: Deminimis and Minor,08/15/18,,,082018-012,167,,#https://dnr.mo.gov/env/apcp/permits/docs/gatwypkg-kc-2018cp.pdf#,AP0000950065,39.102757,-94.512911,1,rooftop,5910,Winner Rd,,,Kansas City,MO,Jackson County,64125,US,Jackson,2021,29,29095,Kansas City,2938000,1900,1000,1,2.91E+14,29095001900,"Kansas City, MO-KS",28140,metropolitan,"Kansas City-Overland Park-Kansas City, MO-KS",312,,
AP201805002,05/01/18,Emission limit update,"Cargill, Inc.",2306 rochester st,Kansas City,Jackson,AP:  Amendment Approved,AOP: Part 70 Operating Permit Minor Modification,07/30/18,,,OP2017-017A,90,3/22/22,,AP0000952001,39.121091,-94.555817,1,range_interpolation,2306,Rochester St,,,Kansas City,MO,Jackson County,64120,US,TIGER/Line® dataset from the US Census Bureau,2021,29,29095,Kansas City,2938000,15500,1082,1,2.91E+14,29095015500,"Kansas City, MO-KS",28140,metropolitan,"Kansas City-Overland Park-Kansas City, MO-KS",312,,
AP201806016,06/11/18,Testing Extension,Ford Motor Company - Kansas City Plant,8121 e us hwy 69,Kansas City,Clay,"AP:  Closed out, per policy",AP: Corrections & Amendments,07/13/18,,,,32,,,AP0000470019,38.998953,-94.49297,0.8,range_interpolation,8121,E 69th St,,,Kansas City,MO,Jackson County,64133,US,TIGER/Line® dataset from the US Census Bureau,2021,29,29095,Kansas City,2938000,17500,1029,1,2.91E+14,29095017500,"Kansas City, MO-KS",28140,metropolitan,"Kansas City-Overland Park-Kansas City, MO-KS",312,,
AP201805032,05/15/18,Envelopes,Tension Envelope Corporation,819 e. 19th,Kansas City,Jackson,AP:  Received Basic OP Issued,AOP: Basic Operating Permit Renewal,07/02/18,,,OP,48,2/8/23,,AP0000950067,39.089963,-94.57331,1,rooftop,819,E 19th St,,,Kansas City,MO,Jackson County,64108,US,Jackson,2021,29,29095,Kansas City,2938000,15800,1026,1,2.91E+14,29095015800,"Kansas City, MO-KS",28140,metropolitan,"Kansas City-Overland Park-Kansas City, MO-KS",312,,
AP201711034,11/27/17,Drinking Water Treatment,Kansas City Water Services,1 nw briarcliff rd,Kansas City,Clay,AP:  Operating Permit Issued,AOP: Intermediate Operating Permit Renewal,06/20/18,,,OP2018-046,205,6/20/23,#https://dnr.mo.gov/env/apcp/permits/docs/watersupptrt-kc2018opf.pdf#,AP0000472227,39.157778,-94.581694,1,rooftop,1,NW Briarcliff Rd,,,Kansas City,MO,Clay County,64116,US,City of Kansas City,2021,29,29047,Kansas City,2938000,20202,1013,1,2.90E+14,29047020202,"Kansas City, MO-KS",28140,metropolitan,"Kansas City-Overland Park-Kansas City, MO-KS",312,,
AP201805055,05/24/18,Asphalt,Ideker inc,mo hwys 210 & 291,Kansas City,Clay,AP:  Section 4 Permit Issued,AP: Sec 4: Relocate to New Site,06/14/18,,,1465A,21,,,AP0201805055,38.915373,-94.36029,0.8,nearest_rooftop_match,209,SE M 291 Hwy,,,Lee's Summit,MO,Jackson County,64063,US,Jackson,2021,29,29095,Lee's Summit,2941348,13803,1003,1,2.91E+14,29095013803,"Kansas City, MO-KS",28140,metropolitan,"Kansas City-Overland Park-Kansas City, MO-KS",312,,
AP201711036,11/27/17,Shredder,"Henry Wurst, Inc",1331 saline st,Kansas City,Clay,AP:  Permit Issued,AP: Sec 5 & 6: Deminimis and Minor,06/07/18,,,062018-006,192,,#https://dnr.mo.gov/env/apcp/permits/docs/hwurstnkc2018cp.pdf#,AP0000470032,39.13274,-94.559711,1,range_interpolation,1331,Saline St,,,Kansas City,MO,Clay County,64116,US,TIGER/Line® dataset from the US Census Bureau,2021,29,29047,North Kansas City,2953102,22100,6008,6,2.90E+14,29047022100,"Kansas City, MO-KS",28140,metropolitan,"Kansas City-Overland Park-Kansas City, MO-KS",312,,
AP201805010,05/03/18,Haz Waste Recovery,Solvent Recovery Corp,716 mulberry st,Kansas City,Jackson,AP:  No Permit Required,AOP: Basic Operating Permit Renewal,06/07/18,,,OP,35,,,AP0000952162,39.105529,-94.600504,1,rooftop,716,Mulberry St,,,Kansas City,MO,Jackson County,64101,US,City of Kansas City,2021,29,29095,Kansas City,2938000,15200,3019,3,2.91E+14,29095015200,"Kansas City, MO-KS",28140,metropolitan,"Kansas City-Overland Park-Kansas City, MO-KS",312,,
AP201805030,05/15/18,Concrete,Brandenburg Industrial Svc.,1500 east bannister rd,Kansas City,Jackson,AP:  Section 5 Permit Issued,AP: IR Sec 5 & 6: Deminimis and Minor,06/05/18,,,062018-003,21,,#https://dnr.mo.gov/env/apcp/permits/docs/brdburg-p-0780-2018cp.pdf#,AP0201803020,38.956045,-94.571962,1,rooftop,1500,E Bannister Rd,,,Kansas City,MO,Jackson County,64131,US,Jackson,2021,29,29095,Kansas City,2938000,9600,3024,3,2.91E+14,29095009600,"Kansas City, MO-KS",28140,metropolitan,"Kansas City-Overland Park-Kansas City, MO-KS",312,,
AP201804044,04/23/18,Roller-Compacted Concrete,AG Peltz Group,12801 ne 41st st,Kansas City,Clay,AP:  Section 5 Permit Issued,AP: IR Sec 5 & 6: Deminimis and Minor,05/30/18,,,052018-012,37,,#https://dnr.mo.gov/env/apcp/permits/docs/agpeltz-p0776-2017cp.pdf#,AP0201804044,39.174939,-94.431531,1,rooftop,12801,NE 41st St,,,Kansas City,MO,Clay County,64161,US,City of Kansas City,2021,29,29047,Kansas City,2938000,22200,3013,3,2.90E+14,29047022200,"Kansas City, MO-KS",28140,metropolitan,"Kansas City-Overland Park-Kansas City, MO-KS",312,,
AP201805045,05/21/18,Crushing update,Brandenburg Industrial Svc.,1500 east bannister rd,Kansas City,Jackson,AP:  Correction Approved,AP: IR Corrections & Amendments,05/29/18,,,042018-003A,8,,,AP0201803020,38.956045,-94.571962,1,rooftop,1500,E Bannister Rd,,,Kansas City,MO,Jackson County,64131,US,Jackson,2021,29,29095,Kansas City,2938000,9600,3024,3,2.91E+14,29095009600,"Kansas City, MO-KS",28140,metropolitan,"Kansas City-Overland Park-Kansas City, MO-KS",312,,
AP201801054,01/31/18,Biodiesel Expansion,Paseo Cargill Inc.,2306 rochester,Kansas City,Jackson,AP:  Section 5 Permit Issued,AP: Sec 5 & 6: Deminimis and Minor,05/15/18,,,052018-003,104,,#https://dnr.mo.gov/env/apcp/permits/docs/paseocarg-kc-2018cp.pdf#,AP0000952436,39.121465,-94.554612,1,rooftop,2306,Rochester Ave,,,Kansas City,MO,Jackson County,64120,US,City of Kansas City,2021,29,29095,Kansas City,2938000,15500,1081,1,2.91E+14,29095015500,"Kansas City, MO-KS",28140,metropolitan,"Kansas City-Overland Park-Kansas City, MO-KS",312,,
AP201612059,12/27/16,Chemicals,Brenntag Mid-South Inc,6301 ne birmingham rd,Kansas City,Clay,AP:  Received Basic OP Issued,AOP: Basic Operating Permit Renewal,04/23/18,,,OP,482,12/28/23,,AP0000470046,39.154341,-94.505921,1,range_interpolation,6301,NE Birmingham Rd,,,Kansas City,MO,Clay County,64117,US,TIGER/Line® dataset from the US Census Bureau,2021,29,29047,Kansas City,2938000,20602,4019,4,2.90E+14,29047020602,"Kansas City, MO-KS",28140,metropolitan,"Kansas City-Overland Park-Kansas City, MO-KS",312,,
AP201710012,10/02/17,VOC PAL Renewal,Ford Motor Company - Kansas City Plant,8121 e us hwy 69,Kansas City,Clay,AP:  Section 8 Permit Issued,"AP: Section 7, 8 & 9 Major Source Review",04/10/18,,,042018-009,190,,#https://dnr.mo.gov/env/apcp/permits/docs/ford-kc2018psd.pdf#,AP0000470019,38.998953,-94.49297,0.8,range_interpolation,8121,E 69th St,,,Kansas City,MO,Jackson County,64133,US,TIGER/Line® dataset from the US Census Bureau,2021,29,29095,Kansas City,2938000,17500,1029,1,2.91E+14,29095017500,"Kansas City, MO-KS",28140,metropolitan,"Kansas City-Overland Park-Kansas City, MO-KS",312,,
AP201711014,11/08/17,Printing,"Henry Wurst, Inc",1331 saline st,Kansas City,Clay,"AP:  Closed out, per policy",AP: Applicability Determination Request,04/04/18,,,,147,,,AP0000470032,39.13274,-94.559711,1,range_interpolation,1331,Saline St,,,Kansas City,MO,Clay County,64116,US,TIGER/Line® dataset from the US Census Bureau,2021,29,29047,North Kansas City,2953102,22100,6008,6,2.90E+14,29047022100,"Kansas City, MO-KS",28140,metropolitan,"Kansas City-Overland Park-Kansas City, MO-KS",312,,
AP201803020,03/12/18,Demolition and Crushing,Brandenburg Industrial Svc.,1500 east bannister rd,Kansas City,Jackson,AP:  Section 5 Permit Issued,AP: IR Sec 5 & 6: Deminimis and Minor,04/02/18,,,042018-003,21,,#https://dnr.mo.gov/env/apcp/permits/docs/brdburg-p-0768-2018cp.pdf#,AP0201803020,38.956045,-94.571962,1,rooftop,1500,E Bannister Rd,,,Kansas City,MO,Jackson County,64131,US,Jackson,2021,29,29095,Kansas City,2938000,9600,3024,3,2.91E+14,29095009600,"Kansas City, MO-KS",28140,metropolitan,"Kansas City-Overland Park-Kansas City, MO-KS",312,,
AP201703026,03/07/17,CAIR,Kansas City Power & Light Co (Hawthorn),8700 hawthorne rd,Kansas City,Jackson,"AP:  Closed out, per policy",AOP: CAIR Application,03/22/18,,,OP,380,,,AP0000950022,39.130505,-94.478423,1,rooftop,8700,Hawthorne Rd,,,Kansas City,MO,Jackson County,64120,US,Jackson,2021,29,29095,Kansas City,2938000,15500,2006,2,2.91E+14,29095015500,"Kansas City, MO-KS",28140,metropolitan,"Kansas City-Overland Park-Kansas City, MO-KS",312,,
AP201803006,03/05/18,Printing,International Paper Company,4343 clary blvd,Kansas City,Jackson,AP:  Permit Issued,AP: Local CP,03/12/18,,,1493,7,,,AP0000952177,39.045879,-94.520965,1,rooftop,4343,Clary Blvd,,,Kansas City,MO,Jackson County,64130,US,Jackson,2021,29,29095,Kansas City,2938000,17100,4013,4,2.91E+14,29095017100,"Kansas City, MO-KS",28140,metropolitan,"Kansas City-Overland Park-Kansas City, MO-KS",312,,
AP201802019,02/14/18,Permit determination to see if a Basic OP is still required.,Cerner Innovation Campus,10234 marion park dr,Kansas City,Jackson,AP:  No Permit Required,AOP: Applicability Determination Requests,03/09/18,,,OP,23,,,AP0000952455,38.945442,-94.529902,1,rooftop,10234,Marion Park Dr,,,Kansas City,MO,Jackson County,64137,US,Jackson,2021,29,29095,Kansas City,2938000,13003,2002,2,2.91E+14,29095013003,"Kansas City, MO-KS",28140,metropolitan,"Kansas City-Overland Park-Kansas City, MO-KS",312,,
AP201706029,06/12/17,Special Case De Minimis,Department of Energy,botts rd & hwy 150,Kansas City,Jackson,AP:  Section 5 Permit Issued,AP: Sec 5 & 6: Deminimis and Minor,03/02/18,,,032018-001,263,,#https://dnr.mo.gov/env/apcp/permits/docs/doe-nnsa-mci2018cpsec.pdf#,AP0000952442,38.860386,-94.546312,0.64,intersection,,Botts Rd,,,Grandview,MO,Jackson County,64030,US,TIGER/Line® dataset from the US Census Bureau,2021,29,29095,Kansas City,2938000,13405,1002,1,2.91E+14,29095013405,"Kansas City, MO-KS",28140,metropolitan,"Kansas City-Overland Park-Kansas City, MO-KS",312,,
AP201711005,11/02/17,Special Case De Minimis,CenterPoint,14510 botts rd,Kansas City,Jackson,AP:  Section 5 Permit Issued,AP: Sec 5 & 6: Deminimis and Minor,02/22/18,,,022018-007,112,,#https://dnr.mo.gov/env/apcp/permits/docs/centerpoint-kc2018cp.pdf#,AP0000952450,38.864149,-94.552191,1,rooftop,14510,Botts Rd,,,Kansas City,MO,Jackson County,64147,US,Jackson,2021,29,29095,Kansas City,2938000,13405,1003,1,2.91E+14,29095013405,"Kansas City, MO-KS",28140,metropolitan,"Kansas City-Overland Park-Kansas City, MO-KS",312,,
AP201712027,12/11/17,Sheet Materials,Nitto Denko Automotive Missouri,8485 prospect,Kansas City,Jackson,AP:  Received Basic OP Issued,AOP: Basic Operating Permit Renewal,02/14/18,,,OP,65,3/1/23,,AP0000952029,38.973621,-94.55707,1,rooftop,8485,Prospect Ave,,,Kansas City,MO,Jackson County,64132,US,Jackson,2021,29,29095,Kansas City,2938000,9600,2026,2,2.91E+14,29095009600,"Kansas City, MO-KS",28140,metropolitan,"Kansas City-Overland Park-Kansas City, MO-KS",312,,
AP201708021,08/10/17,Boilers,Veolia Energy - Kansas City,115 grand ave,Kansas City,Jackson,AP:  Operating Permit Issued,AOP: Part 70 Operating Permit Renewal,02/02/18,,,OP2018-006,176,2/2/23,#https://dnr.mo.gov/env/apcp/permits/docs/veolia-kc2018op.pdf#,APC000950021,39.111405,-94.580806,1,range_interpolation,115,Grand Ave,,,Kansas City,MO,Jackson County,64106,US,TIGER/Line® dataset from the US Census Bureau,2021,29,29095,Kansas City,2938000,15200,1001,1,2.91E+14,29095015200,"Kansas City, MO-KS",28140,metropolitan,"Kansas City-Overland Park-Kansas City, MO-KS",312,,
AP201712053,12/29/17,Facility closure,Commercial Lithographing Co,1226 chestnut,Kansas City,Jackson,AP:  Operating Permit Terminated,AOP: Basic Operating Permit Amendment,01/31/18,,,OP,33,,,AP0000950119,39.097728,-94.549519,1,rooftop,1226,Chestnut Ave,,,Kansas City,MO,Jackson County,64127,US,Jackson,2021,29,29095,Kansas City,2938000,16000,1011,1,2.91E+14,29095016000,"Kansas City, MO-KS",28140,metropolitan,"Kansas City-Overland Park-Kansas City, MO-KS",312,,
AP201711039,11/29/17,Waste Transfer station,Material Recovery Transfer Station,4020 winchester,Kansas City,Jackson,AP:  No Permit Required,AP: Applicability Determination Request,01/31/18,,,,63,,,AP0201711039,39.050733,-94.501529,1,rooftop,4020,Winchester Ave,,,Kansas City,MO,Jackson County,64129,US,City of Kansas City,2021,29,29095,Kansas City,2938000,16300,1093,1,2.91E+14,29095016300,"Kansas City, MO-KS",28140,metropolitan,"Kansas City-Overland Park-Kansas City, MO-KS",312,,
AP201712017,12/07/17,Surface Coating,"Custom Truck & Equipment, LLC",7701 e. highway 24,Kansas City,Jackson,AP:  Permit Issued,AP: Permit-by-Rule,12/18/17,,,122017-007,11,,#https://dnr.mo.gov/env/apcp/permits/docs/customtruck-sedalia2017pbr.pdf#,AP0000952476,39.103689,-94.491891,1,rooftop,7701,E US 24 Hwy,,,Kansas City,MO,Jackson County,64125,US,Jackson,2021,29,29095,Kansas City,2938000,2000,1003,1,2.91E+14,29095002000,"Kansas City, MO-KS",28140,metropolitan,"Kansas City-Overland Park-Kansas City, MO-KS",312,,
AP201710061,10/31/17,RAP Screening,Vance Brothers Inc,5201 brighton ave,Kansas City,Jackson,AP:  Section 5 Permit Issued,AP: Local CP,12/13/17,,,,43,,,AP0000950037,39.03047,-94.527031,1,rooftop,5201,Brighton Ave,,,Kansas City,MO,Jackson County,64130,US,Jackson,2021,29,29095,Kansas City,2938000,7802,2001,2,2.91E+14,29095007802,"Kansas City, MO-KS",28140,metropolitan,"Kansas City-Overland Park-Kansas City, MO-KS",312,,
AP201707002,07/03/17,Terminate OP,FC Industries,13508 oak st,Kansas City,Jackson,AP:  No Permit Required,AOP: Basic Operating Permit Amendment,11/21/17,,,OP,141,,,AP0000952200,38.881755,-94.591567,1,rooftop,13508,Oak St,,,Kansas City,MO,Jackson County,64145,US,Jackson,2021,29,29095,Kansas City,2938000,13405,2011,2,2.91E+14,29095013405,"Kansas City, MO-KS",28140,metropolitan,"Kansas City-Overland Park-Kansas City, MO-KS",312,,
AP201205026,05/04/12,Asphalt,Vance Brothers Inc,5201 brighton ave,Kansas City,Jackson,AP:  Operating Permit Issued,AOP: Intermediate Operating Permit,11/13/17,,,OP2017-074,2019,11/13/22,#https://dnr.mo.gov/env/apcp/permits/docs/vancebros-kc2017op.pdf#,AP0000950037,39.03047,-94.527031,1,rooftop,5201,Brighton Ave,,,Kansas City,MO,Jackson County,64130,US,Jackson,2021,29,29095,Kansas City,2938000,7802,2001,2,2.91E+14,29095007802,"Kansas City, MO-KS",28140,metropolitan,"Kansas City-Overland Park-Kansas City, MO-KS",312,,
AP201707033,06/27/17,Extractor Stretch,"Cargill, Inc.",2306 rochester st,Kansas City,Jackson,AP:  Section 5 Permit Issued,AP: Sec 5 & 6: Deminimis and Minor,11/07/17,,,112017-002,133,,#https://dnr.mo.gov/env/apcp/permits/docs/cargillkscityroch2017cp.pdf#,AP0000952001,39.121091,-94.555817,1,range_interpolation,2306,Rochester St,,,Kansas City,MO,Jackson County,64120,US,TIGER/Line® dataset from the US Census Bureau,2021,29,29095,Kansas City,2938000,15500,1082,1,2.91E+14,29095015500,"Kansas City, MO-KS",28140,metropolitan,"Kansas City-Overland Park-Kansas City, MO-KS",312,,
AP201704025,04/10/17,Newspaper,Kansas City Star,1601 mcgee,Kansas City,Jackson,AP:  Received Basic OP Issued,AOP: Basic Operating Permit Renewal,10/31/17,,,OP,204,10/20/22,,AP0000952435,39.095404,-94.579156,1,rooftop,1601,McGee St,,,Kansas City,MO,Jackson County,64108,US,Jackson,2021,29,29095,Kansas City,2938000,15800,2017,2,2.91E+14,29095015800,"Kansas City, MO-KS",28140,metropolitan,"Kansas City-Overland Park-Kansas City, MO-KS",312,,
AP201710003,10/03/17,Hospital,Children's Mercy Hospital,2401 gillham rd,Kansas City,Jackson,AP:  Received Basic OP Issued,AOP: Basic Operating Permit Renewal,10/31/17,,,OP,28,2/10/23,,AP0000952163,39.08305,-94.577639,1,rooftop,2401,Gillham Rd,,,Kansas City,MO,Jackson County,64108,US,Jackson,2021,29,29095,Kansas City,2938000,4300,1004,1,2.91E+14,29095004300,"Kansas City, MO-KS",28140,metropolitan,"Kansas City-Overland Park-Kansas City, MO-KS",312,,
AP201707019,07/10/17,New Ingredient,Miles Inc (Bayer Corp),8400 hawthorne rd,Kansas City,Jackson,AP:  Section 5 Permit Issued,AP: Sec 5 & 6: Deminimis and Minor,10/26/17,,,102017-016,108,,#https://dnr.mo.gov/env/apcp/permits/docs/bayer-kc2017acp.pdf#,AP0000950011,39.12172,-94.478888,1,rooftop,8400,Hawthorne Rd,,,Kansas City,MO,Jackson County,64120,US,Jackson,2021,29,29095,Kansas City,2938000,15500,2003,2,2.91E+14,29095015500,"Kansas City, MO-KS",28140,metropolitan,"Kansas City-Overland Park-Kansas City, MO-KS",312,,
AP201707020,07/10/17,Confidentiality for 2017-07-019,Miles Inc (Bayer Corp),8400 hawthorne rd,Kansas City,Jackson,AP:  Permit Issued,AP: Confidentiality Request,10/26/17,,,102017-016,108,,,AP0000950011,39.12172,-94.478888,1,rooftop,8400,Hawthorne Rd,,,Kansas City,MO,Jackson County,64120,US,Jackson,2021,29,29095,Kansas City,2938000,15500,2003,2,2.91E+14,29095015500,"Kansas City, MO-KS",28140,metropolitan,"Kansas City-Overland Park-Kansas City, MO-KS",312,,
AP201612033,12/19/16,Waste Treatment,Heritage Environmental Services Inc,8525 ne 38th street,Kansas City,Clay,AP:  No Permit Required,AOP: Basic Operating Permit Renewal,10/25/17,,,OP,310,1/13/22,,AP0000472222,39.162068,-94.482826,1,range_interpolation,8525,NE 38th St,,,Kansas City,MO,Clay County,64161,US,TIGER/Line® dataset from the US Census Bureau,2021,29,29047,Kansas City,2938000,22200,3054,3,2.90E+14,29047022200,"Kansas City, MO-KS",28140,metropolitan,"Kansas City-Overland Park-Kansas City, MO-KS",312,,
AP201708019,08/07/17,Concrete,Fordyce Concrete Co,5810 e 63rd st,Kansas City,Jackson,AP:  Received Basic OP Issued,AOP: Basic Operating Permit Renewal,10/25/17,,,OP,79,3/21/23,,AP0000952022,39.016763,-94.516944,1,rooftop,5810,E 63rd St,,,Kansas City,MO,Jackson County,64133,US,City of Kansas City,2021,29,29095,Kansas City,2938000,17500,2020,2,2.91E+14,29095017500,"Kansas City, MO-KS",28140,metropolitan,"Kansas City-Overland Park-Kansas City, MO-KS",312,,
AP201703025,03/07/17,Acid Rain,Kansas City Power & Light Co (Hawthorn),8700 hawthorne rd,Kansas City,Jackson,"AP:  Closed out, per policy",AOP: Phase II Acid Rain Permit Renewal,10/24/17,,,OP,231,,,AP0000950022,39.130505,-94.478423,1,rooftop,8700,Hawthorne Rd,,,Kansas City,MO,Jackson County,64120,US,Jackson,2021,29,29095,Kansas City,2938000,15500,2006,2,2.91E+14,29095015500,"Kansas City, MO-KS",28140,metropolitan,"Kansas City-Overland Park-Kansas City, MO-KS",312,,
AP201708025,08/11/17,Concrete,Emery Sapp & Sons-KCI,nw airworld dr,Kansas City,Platte,"AP:  Closed out, per policy",AP: IR Corrections & Amendments,10/23/17,,,,73,,,AP0201708002,39.293583,-94.676275,1,street_center,,NW Airworld Dr,,,Kansas City,MO,Platte County,64153,US,TIGER/Line® dataset from the US Census Bureau,2021,29,29165,Kansas City,2938000,30201,4023,4,2.92E+14,29165030201,"Kansas City, MO-KS",28140,metropolitan,"Kansas City-Overland Park-Kansas City, MO-KS",312,,
AP201709053,09/29/17,Printing Press,"Henry Wurst, Inc",1331 saline st,Kansas City,Clay,AP:  Section 5 Permit Issued,AP: Sec 5 & 6: Deminimis and Minor,10/19/17,,,102017-009,20,,#https://dnr.mo.gov/env/apcp/permits/docs/hwurstnkc2017cp.pdf#,AP0000470032,39.13274,-94.559711,1,range_interpolation,1331,Saline St,,,Kansas City,MO,Clay County,64116,US,TIGER/Line® dataset from the US Census Bureau,2021,29,29047,North Kansas City,2953102,22100,6008,6,2.90E+14,29047022100,"Kansas City, MO-KS",28140,metropolitan,"Kansas City-Overland Park-Kansas City, MO-KS",312,,
AP201704016,04/05/17,Terminate OP,Hot Mix Materials Inc,2701 east 85th street,Kansas City,Jackson,AP:  No Permit Required,AOP: Basic Operating Permit Amendment,10/16/17,,,OP,194,,,AP0000952440,38.971691,-94.557217,1,rooftop,2701,E 85th St,,,Kansas City,MO,Jackson County,64132,US,Jackson,2021,29,29095,Kansas City,2938000,9600,3016,3,2.91E+14,29095009600,"Kansas City, MO-KS",28140,metropolitan,"Kansas City-Overland Park-Kansas City, MO-KS",312,,
AP201508013,08/12/15,Terminate OP,Allied Waste Ind Sanitary Landfill,8300 indiana ave,Kansas City,Jackson,AP:  Amendment Approved,AOP: Part 70 Operating Permit Admin. Amendment,10/12/17,,,OP,792,,,AP0000952101,38.976671,-94.547366,1,rooftop,8300,Indiana Ave,,,Kansas City,MO,Jackson County,64132,US,Jackson,2021,29,29095,Kansas City,2938000,9600,3010,3,2.91E+14,29095009600,"Kansas City, MO-KS",28140,metropolitan,"Kansas City-Overland Park-Kansas City, MO-KS",312,,
AP201505046,05/15/15,Landfill - Part 70 to Basic,Allied Waste Ind Sanitary Landfill,8300 indiana ave,Kansas City,Jackson,AP:  Closed Out Inappropriate Request,AOP: Basic Operating Permit,10/06/17,,,OP,875,11/16/20,,AP0000952101,38.976671,-94.547366,1,rooftop,8300,Indiana Ave,,,Kansas City,MO,Jackson County,64132,US,Jackson,2021,29,29095,Kansas City,2938000,9600,3010,3,2.91E+14,29095009600,"Kansas City, MO-KS",28140,metropolitan,"Kansas City-Overland Park-Kansas City, MO-KS",312,,
AP201705042,05/17/17,Printing Press,"Henry Wurst, Inc",1331 saline st,Kansas City,Clay,"AP:  Closed out, per policy",AP: Sec 5 & 6: Deminimis and Minor,10/05/17,,,,141,,,AP0000470032,39.13274,-94.559711,1,range_interpolation,1331,Saline St,,,Kansas City,MO,Clay County,64116,US,TIGER/Line® dataset from the US Census Bureau,2021,29,29047,North Kansas City,2953102,22100,6008,6,2.90E+14,29047022100,"Kansas City, MO-KS",28140,metropolitan,"Kansas City-Overland Park-Kansas City, MO-KS",312,,
AP201412053,12/26/14,Update boiler information,Veolia Energy - Kansas City,115 grand ave,Kansas City,Jackson,"AP:  Closed out, per policy",AOP: Part 70 Operating Permit Minor Modification,09/13/17,,,OP,992,3/3/18,,APC000950021,39.111405,-94.580806,1,range_interpolation,115,Grand Ave,,,Kansas City,MO,Jackson County,64106,US,TIGER/Line® dataset from the US Census Bureau,2021,29,29095,Kansas City,2938000,15200,1001,1,2.91E+14,29095015200,"Kansas City, MO-KS",28140,metropolitan,"Kansas City-Overland Park-Kansas City, MO-KS",312,,
AP201611060,11/30/16,Pallets,CHEP Kansas City Service Center,1501 southern rd-bldg d,Kansas City,Jackson,AP:  No Permit Required,AOP: Basic Operating Permit Amendment,09/08/17,,,OP,282,,,AP0201611060,39.134544,-94.516894,1,rooftop,1501,Southern Rd,Ste,D,Kansas City,MO,Jackson County,64120,US,Jackson,2021,29,29095,Kansas City,2938000,15500,1142,1,2.91E+14,29095015500,"Kansas City, MO-KS",28140,metropolitan,"Kansas City-Overland Park-Kansas City, MO-KS",312,,
AP201705064,05/22/17,Printing/Publishing,Dexter Fulfillment Services,2944 troost ave,Kansas City,Jackson,AP:  Received Basic OP Issued,AOP: Basic Operating Permit Renewal,09/08/17,,,OP,109,12/5/22,,AP0000952005,39.073384,-94.571345,1,rooftop,2944,Troost Ave,,,Kansas City,MO,Jackson County,64109,US,Jackson,2021,29,29095,Kansas City,2938000,4300,2014,2,2.91E+14,29095004300,"Kansas City, MO-KS",28140,metropolitan,"Kansas City-Overland Park-Kansas City, MO-KS",312,,
AP201706076,06/26/17,Terminate OP,Bowen Construction Plant #1,2501 manchester,Kansas City,Jackson,AP:  No Permit Required,AOP: Basic Operating Permit Amendment,09/08/17,,,OP,74,,,AP0000950176,39.078754,-94.49222,1,rooftop,2501,Manchester Trfy,,,Kansas City,MO,Jackson County,64129,US,Jackson,2021,29,29095,Kansas City,2938000,16300,1001,1,2.91E+14,29095016300,"Kansas City, MO-KS",28140,metropolitan,"Kansas City-Overland Park-Kansas City, MO-KS",312,,
AP201704060,04/25/17,Air handling units,CenterPoint,14510 botts rd,Kansas City,Jackson,AP:  Amendment Approved,AP: Sec 5 & 6: Deminimis and Minor,09/07/17,,,1228C,135,,,AP0000952450,38.864149,-94.552191,1,rooftop,14510,Botts Rd,,,Kansas City,MO,Jackson County,64147,US,Jackson,2021,29,29095,Kansas City,2938000,13405,1003,1,2.91E+14,29095013405,"Kansas City, MO-KS",28140,metropolitan,"Kansas City-Overland Park-Kansas City, MO-KS",312,,
AP201609010,09/02/16,Aircraft Parts,PAS Technologies Inc.,1234 atlantic st,Kansas City,Clay,AP:  Operating Permit Terminated,AOP: Basic Operating Permit Amendment,08/04/17,,,OP,336,4/15/18,,AP0000470099,39.13121,-94.582353,1,range_interpolation,1234,Atlantic St,,,Kansas City,MO,Clay County,64116,US,TIGER/Line® dataset from the US Census Bureau,2021,29,29047,North Kansas City,2953102,22100,6175,6,2.90E+14,29047022100,"Kansas City, MO-KS",28140,metropolitan,"Kansas City-Overland Park-Kansas City, MO-KS",312,,
AP201708002,08/01/17,Concrete,Emery Sapp & Sons-KCI,nw airworld dr,Kansas City,Platte,AP:  Section 4 Permit Issued,AP: Sec 4: Relocate to New Site,08/04/17,,,062009-003I,3,8/27/18,,AP0201708002,39.293583,-94.676275,1,street_center,,NW Airworld Dr,,,Kansas City,MO,Platte County,64153,US,TIGER/Line® dataset from the US Census Bureau,2021,29,29165,Kansas City,2938000,30201,4023,4,2.92E+14,29165030201,"Kansas City, MO-KS",28140,metropolitan,"Kansas City-Overland Park-Kansas City, MO-KS",312,,
AP201610034,10/17/16,Retroactively Permit Control Devices for the Facility,PAS Technologies Inc.,1234 atlantic st,Kansas City,Clay,AP:  Section 5 Permit Issued,AP: Sec 5 & 6: Deminimis and Minor,07/17/17,,,072017-017,273,,#http://dnr.mo.gov/env/apcp/permits/docs/pastech-kc2017cp.pdf#,AP0000470099,39.13121,-94.582353,1,range_interpolation,1234,Atlantic St,,,Kansas City,MO,Clay County,64116,US,TIGER/Line® dataset from the US Census Bureau,2021,29,29047,North Kansas City,2953102,22100,6175,6,2.90E+14,29047022100,"Kansas City, MO-KS",28140,metropolitan,"Kansas City-Overland Park-Kansas City, MO-KS",312,,
AP201706063,06/20/17,Extractor Stretch,"Cargill, Inc.",2306 rochester st,Kansas City,Jackson,"AP:  Closed out, per policy",AP: Applicability Determination Request,06/27/17,,,,7,,,AP0000952001,39.121091,-94.555817,1,range_interpolation,2306,Rochester St,,,Kansas City,MO,Jackson County,64120,US,TIGER/Line® dataset from the US Census Bureau,2021,29,29095,Kansas City,2938000,15500,1082,1,2.91E+14,29095015500,"Kansas City, MO-KS",28140,metropolitan,"Kansas City-Overland Park-Kansas City, MO-KS",312,,
AP201210012,10/04/12,Grain,"Cargill, Inc.",4801 east birmingham road,Kansas City,Clay,AP:  Operating Permit Issued,AOP: Intermediate Operating Permit Renewal,06/26/17,,,OP2017-053,1726,6/26/22,#http://dnr.mo.gov/env/apcp/permits/docs/cargillkc-birm2017op.pdf#,APA000470027,39.150943,-94.523917,0.9,rooftop,4801,NE Birmingham Rd,,,Kansas City,MO,Clay County,64117,US,City of Kansas City,2021,29,29047,Kansas City,2938000,20602,2011,2,2.90E+14,29047020602,"Kansas City, MO-KS",28140,metropolitan,"Kansas City-Overland Park-Kansas City, MO-KS",312,,
AP201609035,09/22/16,Terminate 2012-11-058,Purina Mills,725 n olive st,Kansas City,Jackson,AP:  Operating Permit Terminated,AOP: Basic Operating Permit Amendment,06/22/17,,,OP,273,,,AP0000950036,39.122004,-94.553119,1,rooftop,725,N Olive St,,,Kansas City,MO,Jackson County,64120,US,City of Kansas City,2021,29,29095,Kansas City,2938000,15500,1080,1,2.91E+14,29095015500,"Kansas City, MO-KS",28140,metropolitan,"Kansas City-Overland Park-Kansas City, MO-KS",312,,
AP201401016,01/10/14,Steam and Wastewater,"Facility Operation Services, LLC",9200 nw 112th,Kansas City,Platte,AP:  Operating Permit Issued,AOP: Intermediate Operating Permit Renewal,05/30/17,,,OP2017-013,1236,5/30/22,#http://dnr.mo.gov/env/apcp/permits/docs/mci-facilityop2017op.pdf#,APA001652424,39.326401,-94.711034,1,rooftop,9200,NW 112th St,,,Kansas City,MO,Platte County,64153,US,City of Kansas City,2021,29,29165,Kansas City,2938000,980000,1024,1,2.92E+14,29165980000,"Kansas City, MO-KS",28140,metropolitan,"Kansas City-Overland Park-Kansas City, MO-KS",312,,
AP201605067,05/23/16,Carbon Injection,Kansas City Power & Light Co (Hawthorn),8700 hawthorne rd,Kansas City,Jackson,AP:  Amendment Approved,AOP: Part 70 Operating Permit Minor Modification,05/30/17,,,OP,372,,#http://dnr.mo.gov/env/apcp/permits/docs/kcpl-hawthorn2017opa.pdf#,AP0000950022,39.130505,-94.478423,1,rooftop,8700,Hawthorne Rd,,,Kansas City,MO,Jackson County,64120,US,Jackson,2021,29,29095,Kansas City,2938000,15500,2006,2,2.91E+14,29095015500,"Kansas City, MO-KS",28140,metropolitan,"Kansas City-Overland Park-Kansas City, MO-KS",312,,
AP201509001,08/31/15,Concrete Crushing,Hoezel Crushing,4151 e 75th terrace,Kansas City,Jackson,AP:  No Permit Required,AOP: Basic Operating Permit,04/28/17,,,OP,606,8/30/20,,AP0000952467,38.987924,-94.540035,1,rooftop,4151,E 75th Ter,,,Kansas City,MO,Jackson County,64132,US,Jackson,2021,29,29095,Kansas City,2938000,9600,2000,2,2.91E+14,29095009600,"Kansas City, MO-KS",28140,metropolitan,"Kansas City-Overland Park-Kansas City, MO-KS",312,,
AP201701065,01/26/17,Paint Booths,Department of Energy,botts rd & hwy 150,Kansas City,Jackson,AP:  Section 5 Permit Issued,AP: Sec 5 & 6: Deminimis and Minor,04/12/17,,,042017-004,76,,#http://dnr.mo.gov/env/apcp/permits/docs/doe-nnsa-mci2017cp.pdf#,AP0000952442,38.860386,-94.546312,0.64,intersection,,Botts Rd,,,Grandview,MO,Jackson County,64030,US,TIGER/Line® dataset from the US Census Bureau,2021,29,29095,Kansas City,2938000,13405,1002,1,2.91E+14,29095013405,"Kansas City, MO-KS",28140,metropolitan,"Kansas City-Overland Park-Kansas City, MO-KS",312,,
AP201702026,02/15/17,Cardboard,Heartland Sheets,3950 kimball dr,Kansas City,Clay,AP:  No Permit Required,AOP: Basic Operating Permit Renewal,04/10/17,,,OP,54,,,AP0000470331,39.164747,-94.440964,0.9,rooftop,3950,N Kimball Dr,,,Kansas City,MO,Clay County,64161,US,City of Kansas City,2021,29,29047,Kansas City,2938000,22200,3097,3,2.90E+14,29047022200,"Kansas City, MO-KS",28140,metropolitan,"Kansas City-Overland Park-Kansas City, MO-KS",312,,
AP201704019,04/07/17,Replace Generator,"Catalent CTS, LLC",10245 hickman mills dr,Kansas City,Jackson,"AP:  Closed out, per policy",AP: Applicability Determination Request,04/10/17,,,,3,,,AP0000952202,38.940306,-94.528735,1,rooftop,10245,Hickman Mills Dr,,,Kansas City,MO,Jackson County,64137,US,City of Kansas City,2021,29,29095,Kansas City,2938000,13003,2004,2,2.91E+14,29095013003,"Kansas City, MO-KS",28140,metropolitan,"Kansas City-Overland Park-Kansas City, MO-KS",312,,
AP200707035,07/02/07,Soybean Extraction,"Cargill, Inc.",2306 rochester st,Kansas City,Jackson,AP:  Operating Permit Issued,AOP: Part 70 Operating Permit Renewal,03/22/17,,,OP2017-017,3551,3/22/22,#http://dnr.mo.gov/env/apcp/permits/docs/cargillkscity2017op.pdf#,AP0000952001,39.121091,-94.555817,1,range_interpolation,2306,Rochester St,,,Kansas City,MO,Jackson County,64120,US,TIGER/Line® dataset from the US Census Bureau,2021,29,29095,Kansas City,2938000,15500,1082,1,2.91E+14,29095015500,"Kansas City, MO-KS",28140,metropolitan,"Kansas City-Overland Park-Kansas City, MO-KS",312,,
AP201702007,02/03/17,Surface Coating,Duke Aerial,1225 e 16th ave,Kansas City,Clay,AP:  Permit Issued,AP: Permit-by-Rule,03/22/17,,,032017-012,47,,#http://dnr.mo.gov/env/apcp/permits/docs/dukeariel-kc2017cp.pdf#,AP0000470201,39.137524,-94.567219,1,range_interpolation,1225,E 16th Ave,,,Kansas City,MO,Clay County,64116,US,TIGER/Line® dataset from the US Census Bureau,2021,29,29047,North Kansas City,2953102,22100,6024,6,2.90E+14,29047022100,"Kansas City, MO-KS",28140,metropolitan,"Kansas City-Overland Park-Kansas City, MO-KS",312,,
AP201603096,01/26/16,Name Change,"Mizkan America, Inc.",2400 nicholson,Kansas City,Jackson,AP:  Amendment Approved,AOP: Basic Operating Permit Off-Permit Changes,03/16/17,,,OP,415,,,AP0000952161,39.123922,-94.552858,1,rooftop,2400,Nicholson Ave,,,Kansas City,MO,Jackson County,64120,US,Jackson,2021,29,29095,Kansas City,2938000,15500,1070,1,2.91E+14,29095015500,"Kansas City, MO-KS",28140,metropolitan,"Kansas City-Overland Park-Kansas City, MO-KS",312,,
AP201609021,09/08/16,Boiler and Reactor changes and name change,"Mizkan America, Inc.",2400 nicholson,Kansas City,Jackson,AP:  Request Approved,AOP: Basic Operating Permit Off-Permit Changes,03/16/17,,,OP,189,,,AP0000952161,39.123922,-94.552858,1,rooftop,2400,Nicholson Ave,,,Kansas City,MO,Jackson County,64120,US,Jackson,2021,29,29095,Kansas City,2938000,15500,1070,1,2.91E+14,29095015500,"Kansas City, MO-KS",28140,metropolitan,"Kansas City-Overland Park-Kansas City, MO-KS",312,,
AP201703033,03/08/17,Ownership Change,Dexter Fulfillment Services,2944 troost ave,Kansas City,Jackson,AP:  Amendment Approved,AOP: Basic Operating Permit Amendment,03/16/17,,,OP,8,,,AP0000952005,39.073384,-94.571345,1,rooftop,2944,Troost Ave,,,Kansas City,MO,Jackson County,64109,US,Jackson,2021,29,29095,Kansas City,2938000,4300,2014,2,2.91E+14,29095004300,"Kansas City, MO-KS",28140,metropolitan,"Kansas City-Overland Park-Kansas City, MO-KS",312,,
AP201703002,03/01/17,Asphalt,Ideker Inc.,kci airport,Kansas City,Platte,AP:  Local Agency Review,AP: Local CP,03/08/17,,,1465,7,,,AP0001652461,39.297123,-94.694354,1,street_center,,Airport Dr,,,Kansas City,MO,Platte County,64153,US,TIGER/Line® dataset from the US Census Bureau,2021,29,29165,Kansas City,2938000,980000,1063,1,2.92E+14,29165980000,"Kansas City, MO-KS",28140,metropolitan,"Kansas City-Overland Park-Kansas City, MO-KS",312,,
AP201703003,03/01/17,Asphalt,Hot Mix Materials Inc,2701 east 85th street,Kansas City,Jackson,AP:  Permit Issued,AP: Local CP,03/06/17,,,1462,5,,,AP0000952440,38.971691,-94.557217,1,rooftop,2701,E 85th St,,,Kansas City,MO,Jackson County,64132,US,Jackson,2021,29,29095,Kansas City,2938000,9600,3016,3,2.91E+14,29095009600,"Kansas City, MO-KS",28140,metropolitan,"Kansas City-Overland Park-Kansas City, MO-KS",312,,
AP201701039,01/20/17,Surface Coating,"Etched, LLC",4351 clary blvd,Kansas City,Jackson,AP:  Permit Issued,AP: Permit-by-Rule,03/03/17,,,032017-001,42,,#http://dnr.mo.gov/env/apcp/permits/docs/etchedllc-kc2017cp.pdf#,AP0000950392,39.044813,-94.522256,1,rooftop,4351,Clary Blvd,,,Kansas City,MO,Jackson County,64130,US,Jackson,2021,29,29095,Kansas City,2938000,17100,4013,4,2.91E+14,29095017100,"Kansas City, MO-KS",28140,metropolitan,"Kansas City-Overland Park-Kansas City, MO-KS",312,,
AP201402072,02/03/14,Airport,Kansas City Airport Aviation Dept,601 brasilia ave,Kansas City,Platte,AP:  Operating Permit Issued,AOP: Intermediate Operating Permit Renewal,02/28/17,,,OP2017-014,1121,2/28/22,#http://dnr.mo.gov/env/apcp/permits/docs/mci-aviation2017op.pdf#,AP0001652404,39.304398,-94.720609,1,rooftop,601,Brasilia Ave,,,Kansas City,MO,Platte County,64153,US,Platte County,2021,29,29165,Kansas City,2938000,980000,1011,1,2.92E+14,29165980000,"Kansas City, MO-KS",28140,metropolitan,"Kansas City-Overland Park-Kansas City, MO-KS",312,,
AP201509058,09/24/15,Foam and plastics,Cook Brothers Insulation Inc,200 walnut st,Kansas City,Jackson,AP:  No Permit Required,AOP: Intermediate Operating Permit Renewal,02/28/17,,,OP,523,,,AP0000952058,39.110689,-94.582651,1,rooftop,200,Walnut St,,,Kansas City,MO,Jackson County,64106,US,Jackson,2021,29,29095,Kansas City,2938000,15200,1003,1,2.91E+14,29095015200,"Kansas City, MO-KS",28140,metropolitan,"Kansas City-Overland Park-Kansas City, MO-KS",312,,
AP201604022,04/11/16,Hospital,Veterans Administration Medical Center,4801 e linwood blvd,Kansas City,Jackson,AP:  Received Basic OP Issued,AOP: Basic Operating Permit Renewal,02/28/17,,,OP,323,6/13/21,,AP0000952056,39.063916,-94.526692,1,rooftop,4801,E Linwood Blvd,,,Kansas City,MO,Jackson County,64128,US,Jackson,2021,29,29095,Kansas City,2938000,5801,3018,3,2.91E+14,29095005801,"Kansas City, MO-KS",28140,metropolitan,"Kansas City-Overland Park-Kansas City, MO-KS",312,,
AP201702065,02/28/17,Flexographic Press,Gateway Packaging of Missouri,5910 winner road,Kansas City,Jackson,"AP:  Closed out, per policy",AP: Applicability Determination Request,02/28/17,,,,0,,,AP0000950065,39.102757,-94.512911,1,rooftop,5910,Winner Rd,,,Kansas City,MO,Jackson County,64125,US,Jackson,2021,29,29095,Kansas City,2938000,1900,1000,1,2.91E+14,29095001900,"Kansas City, MO-KS",28140,metropolitan,"Kansas City-Overland Park-Kansas City, MO-KS",312,,
AP201610036,10/18/16,New process,Miles Inc (Bayer Corp),8400 hawthorne rd,Kansas City,Jackson,AP:  Section 5 Permit Issued,AP: Sec 5 & 6: Deminimis and Minor,02/14/17,,,022017-004,119,,#http://dnr.mo.gov/env/apcp/permits/docs/bayer-kc2017cp.pdf#,AP0000950011,39.12172,-94.478888,1,rooftop,8400,Hawthorne Rd,,,Kansas City,MO,Jackson County,64120,US,Jackson,2021,29,29095,Kansas City,2938000,15500,2003,2,2.91E+14,29095015500,"Kansas City, MO-KS",28140,metropolitan,"Kansas City-Overland Park-Kansas City, MO-KS",312,,
AP201610037,10/25/16,Confidentiality for 2016-10-036,Miles Inc (Bayer Corp),8400 hawthorne rd,Kansas City,Jackson,"AP:  Closed out, per policy",AP: Confidentiality Request,02/06/17,,,,104,,,AP0000950011,39.12172,-94.478888,1,rooftop,8400,Hawthorne Rd,,,Kansas City,MO,Jackson County,64120,US,Jackson,2021,29,29095,Kansas City,2938000,15500,2003,2,2.91E+14,29095015500,"Kansas City, MO-KS",28140,metropolitan,"Kansas City-Overland Park-Kansas City, MO-KS",312,,
AP201607020,07/12/16,Asphalt,Superior Asphalt Company Inc,8651 ne 38th street,Kansas City,Clay,AP:  Received Basic OP Issued,AOP: Basic Operating Permit Renewal,02/03/17,,,OP,206,12/15/21,,AP0000472219,39.159472,-94.477894,1,rooftop,8651,NE 38th St,,,Kansas City,MO,Clay County,64161,US,City of Kansas City,2021,29,29047,Kansas City,2938000,22200,3054,3,2.90E+14,29047022200,"Kansas City, MO-KS",28140,metropolitan,"Kansas City-Overland Park-Kansas City, MO-KS",312,,
AP201508038,08/27/15,Power Plant,K. C. Power & Light Co,950 n olive st,Kansas City,Jackson,AP:  Operating Permit Issued,AOP: Part 70 Operating Permit Renewal,01/31/17,,,OP2016-045,523,1/31/22,#http://dnr.mo.gov/env/apcp/permits/docs/kcpl--ne2017op.pdf#,APA000950023,39.123861,-94.554586,1,range_interpolation,950,N Olive St,,,Kansas City,MO,Jackson County,64120,US,TIGER/Line® dataset from the US Census Bureau,2021,29,29095,Kansas City,2938000,15500,1083,1,2.91E+14,29095015500,"Kansas City, MO-KS",28140,metropolitan,"Kansas City-Overland Park-Kansas City, MO-KS",312,,
AP201612060,12/23/16,Terminate OP,"Aventis Pharmaceuticals, Inc.",10236 marion park dr,Kansas City,Jackson,AP:  Operating Permit Terminated,AOP: Basic Operating Permit Amendment,01/27/17,,,OP,35,,,AP0000950063,39.048809,-94.595695,1,rooftop,10236,Marion Park Dr,,,Kansas City,MO,Jackson County,64137,US,City of Kansas City,2021,29,29095,Kansas City,2938000,7100,3000,3,2.91E+14,29095007100,"Kansas City, MO-KS",28140,metropolitan,"Kansas City-Overland Park-Kansas City, MO-KS",312,,
AP201601017,01/11/16,Asphalt,J.M. Fahey Construction,8600 tracy,Kansas City,Jackson,AP:  Received Basic OP Issued,AOP: Basic Operating Permit Renewal,01/24/17,,,OP,379,7/11/21,,AP0000950003,38.970753,-94.571787,1,range_interpolation,8600,Tracy Ave,,,Kansas City,MO,Jackson County,64131,US,TIGER/Line® dataset from the US Census Bureau,2021,29,29095,Kansas City,2938000,9500,2004,2,2.91E+14,29095009500,"Kansas City, MO-KS",28140,metropolitan,"Kansas City-Overland Park-Kansas City, MO-KS",312,,
AP201604034,04/18/16,Emergency Generators,Iron Mountain - Kansas City,6301 winchester ave,Kansas City,Jackson,AP:  Received Basic OP Issued,AOP: Basic Operating Permit,01/24/17,,,OP,281,,,AP0000952479,39.010572,-94.502171,1,rooftop,6301,Winchester Ave,,,Kansas City,MO,Jackson County,64133,US,City of Kansas City,2021,29,29095,Kansas City,2938000,17500,2026,2,2.91E+14,29095017500,"Kansas City, MO-KS",28140,metropolitan,"Kansas City-Overland Park-Kansas City, MO-KS",312,,
AP201612064,12/29/16,Emergency Generators,Iron Mountain - Kansas City,6301 winchester ave,Kansas City,Jackson,AP:  Permit Issued,AP: Local CP,01/03/17,,,1444,5,,,AP0000952479,39.010572,-94.502171,1,rooftop,6301,Winchester Ave,,,Kansas City,MO,Jackson County,64133,US,City of Kansas City,2021,29,29095,Kansas City,2938000,17500,2026,2,2.91E+14,29095017500,"Kansas City, MO-KS",28140,metropolitan,"Kansas City-Overland Park-Kansas City, MO-KS",312,,
AP201602019,02/08/16,Roofing Materials,Derbigum America,4821 chelsea avenue,Kansas City,Jackson,AP:  Received Basic OP Issued,AOP: Basic Operating Permit Renewal,12/30/16,,,OP,326,6/2/21,,AP0000950177,39.037693,-94.527738,1,rooftop,4821,Chelsea Ave,,,Kansas City,MO,Jackson County,64130,US,Jackson,2021,29,29095,Kansas City,2938000,17100,4020,4,2.91E+14,29095017100,"Kansas City, MO-KS",28140,metropolitan,"Kansas City-Overland Park-Kansas City, MO-KS",312,,
AP201608043,08/22/16,Boiler Changes,Veolia Energy - Kansas City,115 grand ave,Kansas City,Jackson,AP:  Section 5 Permit Issued,AP: Sec 5 & 6: Deminimis and Minor,12/21/16,,,122016-009,121,,#http://dnr.mo.gov/env/apcp/permits/docs/veolia-kc2016cp.pdf#,APC000950021,39.111405,-94.580806,1,range_interpolation,115,Grand Ave,,,Kansas City,MO,Jackson County,64106,US,TIGER/Line® dataset from the US Census Bureau,2021,29,29095,Kansas City,2938000,15200,1001,1,2.91E+14,29095015200,"Kansas City, MO-KS",28140,metropolitan,"Kansas City-Overland Park-Kansas City, MO-KS",312,,
AP201509048,09/21/15,Boilers,United States Postal Service,1700 cleveland ave,Kansas City,Jackson,AP:  No Permit Required,AOP: Basic Operating Permit Renewal,12/06/16,,,OP,442,,,AP0000952207,39.092236,-94.537341,1,rooftop,1700,Cleveland Ave,,,Kansas City,MO,Jackson County,64127,US,Jackson,2021,29,29095,Kansas City,2938000,2300,1016,1,2.91E+14,29095002300,"Kansas City, MO-KS",28140,metropolitan,"Kansas City-Overland Park-Kansas City, MO-KS",312,,
AP201609028,09/21/16,,Miles Inc (Bayer Corp),8400 hawthorne rd,Kansas City,Jackson,AP:  No Permit Required,AP: Applicability Determination Request,11/28/16,,,,68,,,AP0000950011,39.12172,-94.478888,1,rooftop,8400,Hawthorne Rd,,,Kansas City,MO,Jackson County,64120,US,Jackson,2021,29,29095,Kansas City,2938000,15500,2003,2,2.91E+14,29095015500,"Kansas City, MO-KS",28140,metropolitan,"Kansas City-Overland Park-Kansas City, MO-KS",312,,
AP201609046,09/21/16,Confidentiality for 2016-09-028,Miles Inc (Bayer Corp),8400 hawthorne rd,Kansas City,Jackson,AP:  Request Approved,AP: Confidentiality Request,11/28/16,,,,68,,,AP0000950011,39.12172,-94.478888,1,rooftop,8400,Hawthorne Rd,,,Kansas City,MO,Jackson County,64120,US,Jackson,2021,29,29095,Kansas City,2938000,15500,2003,2,2.91E+14,29095015500,"Kansas City, MO-KS",28140,metropolitan,"Kansas City-Overland Park-Kansas City, MO-KS",312,,
AP201603020,03/08/16,Rock Crushing,"Quality Aggregates, LLC",13000 e 350 hwy,Kansas City,Jackson,AP:  Received Basic OP Issued,AOP: Basic Operating Permit Renewal,11/15/16,,,OP,252,6/13/21,,AP0000952233,38.969033,-94.42928,1,rooftop,13000,E M 350 Hwy,,,Kansas City,MO,Jackson County,64138,US,City of Kansas City,2021,29,29095,Kansas City,2938000,17600,4016,4,2.91E+14,29095017600,"Kansas City, MO-KS",28140,metropolitan,"Kansas City-Overland Park-Kansas City, MO-KS",312,,
AP201609014,09/08/16,Lead Casting for Battery Production,Exide Technlolgies,7601 nw 107th terr.,Kansas City,Platte,AP:  Section 5 Permit Issued,AP: Sec 5 & 6: Deminimis and Minor,11/02/16,,,112016-002,55,,#http://dnr.mo.gov/env/apcp/permits/docs/exide-kc2016cp.pdf#,APA001650043,39.287066,-94.669623,1,rooftop,7601,NW 107th Ter,,,Kansas City,MO,Platte County,64153,US,Platte County,2021,29,29165,Kansas City,2938000,30201,4032,4,2.92E+14,29165030201,"Kansas City, MO-KS",28140,metropolitan,"Kansas City-Overland Park-Kansas City, MO-KS",312,,
AP201605004,05/03/16,Update Conditions,"Cargill, Inc.",2306 rochester st,Kansas City,Jackson,AP:  Amendment Approved,AP: Corrections & Amendments,10/25/16,,,1140B,175,,,AP0000952001,39.121091,-94.555817,1,range_interpolation,2306,Rochester St,,,Kansas City,MO,Jackson County,64120,US,TIGER/Line® dataset from the US Census Bureau,2021,29,29095,Kansas City,2938000,15500,1082,1,2.91E+14,29095015500,"Kansas City, MO-KS",28140,metropolitan,"Kansas City-Overland Park-Kansas City, MO-KS",312,,
AP201605083,05/03/16,Update Conditions,"Cargill, Inc.",2306 rochester st,Kansas City,Jackson,AP:  Amendment Approved,AP: Corrections & Amendments,10/25/16,,,092012-007A,175,,,AP0000952001,39.121091,-94.555817,1,range_interpolation,2306,Rochester St,,,Kansas City,MO,Jackson County,64120,US,TIGER/Line® dataset from the US Census Bureau,2021,29,29095,Kansas City,2938000,15500,1082,1,2.91E+14,29095015500,"Kansas City, MO-KS",28140,metropolitan,"Kansas City-Overland Park-Kansas City, MO-KS",312,,
AP201607015,07/06/16,Move Production,Miles Inc (Bayer Corp),8400 hawthorne rd,Kansas City,Jackson,AP:  Section 5 Permit Issued,AP: Sec 5 & 6: Deminimis and Minor,10/07/16,,,102016-001,93,,#http://dnr.mo.gov/env/apcp/permits/docs/bayer-kc2016cp.pdf#,AP0000950011,39.12172,-94.478888,1,rooftop,8400,Hawthorne Rd,,,Kansas City,MO,Jackson County,64120,US,Jackson,2021,29,29095,Kansas City,2938000,15500,2003,2,2.91E+14,29095015500,"Kansas City, MO-KS",28140,metropolitan,"Kansas City-Overland Park-Kansas City, MO-KS",312,,
AP201607016,07/06/16,Confidentiality for 2016-07-015,Miles Inc (Bayer Corp),8400 hawthorne rd,Kansas City,Jackson,AP:  Permit Issued,AP: Confidentiality Request,10/07/16,,,,93,,,AP0000950011,39.12172,-94.478888,1,rooftop,8400,Hawthorne Rd,,,Kansas City,MO,Jackson County,64120,US,Jackson,2021,29,29095,Kansas City,2938000,15500,2003,2,2.91E+14,29095015500,"Kansas City, MO-KS",28140,metropolitan,"Kansas City-Overland Park-Kansas City, MO-KS",312,,
AP201507034,07/21/15,Greeting Cards,"Hallmark Cards, Inc",2501 mcgee st,Kansas City,Jackson,AP:  No Permit Required,AOP: Part 70 Operating Permit Renewal,10/03/16,,,OP,440,7/26/20,,AP0000950114,39.079886,-94.582436,0.99,rooftop,2501 R,McGee St,,,Kansas City,MO,Jackson County,64108,US,City of Kansas City,2021,29,29095,Kansas City,2938000,4400,1000,1,2.91E+14,29095004400,"Kansas City, MO-KS",28140,metropolitan,"Kansas City-Overland Park-Kansas City, MO-KS",312,,
AP201605051,05/16/16,Terminate OP,"Hallmark Cards, Inc",2501 mcgee st,Kansas City,Jackson,AP:  No Permit Required,AOP: Part 70 Operating Permit Admin. Amendment,10/03/16,,,OP,140,,,AP0000950114,39.079886,-94.582436,0.99,rooftop,2501 R,McGee St,,,Kansas City,MO,Jackson County,64108,US,City of Kansas City,2021,29,29095,Kansas City,2938000,4400,1000,1,2.91E+14,29095004400,"Kansas City, MO-KS",28140,metropolitan,"Kansas City-Overland Park-Kansas City, MO-KS",312,,
AP201604007,04/05/16,Paint Booth,The Babcock & Wilcox Co,13600 wyandotte st,Kansas City,Jackson,AP:  Permit Issued,AP: Permit-by-Rule,09/21/16,,,,169,,#http://dnr.mo.gov/env/apcp/permits/docs/babwilcox-kc2016cp.pdf#,AP0000950391,38.881362,-94.598802,1,rooftop,13600,Wyandotte St,,,Kansas City,MO,Jackson County,64145,US,Jackson,2021,29,29095,Kansas City,2938000,13405,2025,2,2.91E+14,29095013405,"Kansas City, MO-KS",28140,metropolitan,"Kansas City-Overland Park-Kansas City, MO-KS",312,,
AP201608048,08/29/16,Paint Booth,Department of Energy,botts rd & hwy 150,Kansas City,Jackson,AP:  Permit Required,AP: Applicability Determination Request,09/13/16,,,,15,,,AP0000952442,38.860386,-94.546312,0.64,intersection,,Botts Rd,,,Grandview,MO,Jackson County,64030,US,TIGER/Line® dataset from the US Census Bureau,2021,29,29095,Kansas City,2938000,13405,1002,1,2.91E+14,29095013405,"Kansas City, MO-KS",28140,metropolitan,"Kansas City-Overland Park-Kansas City, MO-KS",312,,
AP201606057,06/27/16,Finishing Line,"Profile Cabinets, Inc.",7400 east 12th street,Kansas City,Jackson,AP:  Permit Issued,AP: Local CP,08/24/16,,,1445A,58,,,AP0000952065,39.097341,-94.49586,1,rooftop,7400,E 12th St,,,Kansas City,MO,Jackson County,64126,US,Jackson,2021,29,29095,Kansas City,2938000,2000,1050,1,2.91E+14,29095002000,"Kansas City, MO-KS",28140,metropolitan,"Kansas City-Overland Park-Kansas City, MO-KS",312,,
AP201502055,02/24/15,Incinerator,Mount Moriah,10507 holmes rd,Kansas City,Jackson,AP:  No Permit Required,AOP: Basic Operating Permit Renewal,08/02/16,,,OP,525,1/2/20,,AP0000952075,38.937287,-94.580232,1,rooftop,10507,Holmes Rd,,,Kansas City,MO,Jackson County,64131,US,Jackson,2021,29,29095,Kansas City,2938000,17300,1001,1,2.91E+14,29095017300,"Kansas City, MO-KS",28140,metropolitan,"Kansas City-Overland Park-Kansas City, MO-KS",312,,
AP201511031,11/10/15,Human Remains Incinerator,"Funeral DirectorÔøΩs Service, Inc.",1409 illinois,Kansas City,Jackson,AP:  No Permit Required,AOP: Basic Operating Permit,08/02/16,,,OP,266,11/9/20,,AP0000952477,39.09549,-94.545665,1,rooftop,1409,Illinois Ave,,,Kansas City,MO,Jackson County,64127,US,Jackson,2021,29,29095,Kansas City,2938000,16000,1032,1,2.91E+14,29095016000,"Kansas City, MO-KS",28140,metropolitan,"Kansas City-Overland Park-Kansas City, MO-KS",312,,
AP201606043,06/20/16,Boiler and Steam Piping,St Joseph Health Center,1000 carondelet dr,Kansas City,Jackson,"AP:  Closed out, per policy",AP: Applicability Determination Request,06/21/16,,,,1,,,AP0000952083,38.935669,-94.603767,1,rooftop,1000,Carondelet Dr,,,Kansas City,MO,Jackson County,64114,US,Jackson,2021,29,29095,Kansas City,2938000,10105,3000,3,2.91E+14,29095010105,"Kansas City, MO-KS",28140,metropolitan,"Kansas City-Overland Park-Kansas City, MO-KS",312,,
